{"/lccn/sn82014090": {"lang": "eng", "title": "Alaska mining record.", "series": "/lccn/sn82014090", "longitude": -134.41971999999998, "normplace": "Juneau, AK", "place": "Juneau, Alaska", "country": "US", "latitude": 58.30194}, "/lccn/sn82014096": {"lang": "eng", "title": "Weekly national Republican.", "series": "/lccn/sn82014096", "longitude": -77.03636999999999, "normplace": "Washington, DC", "place": "Washington, D.C.", "country": "US", "latitude": 38.895109999999995}, "trove/156": {"lang": "eng", "title": "Alexandra and Yea Standard and Yarck, Gobur, Thornton and Acheron Express (Vic. : 1908 - 1949)", "series": "trove/156", "longitude": 145.7112, "normplace": "Alexandra, VIC", "place": "None", "country": "AU", "latitude": -37.191320000000005}, "europeana/LVA/zemnika_bolss": {"lang": "None", "title": "Zemn\u012bka Bolss", "series": "europeana/LVA/zemnika_bolss", "longitude": "None", "normplace": "\u2014", "place": "[missing]", "country": "EU", "latitude": "None"}, "/lccn/sn83020093": {"lang": "eng", "title": "Lowell morning courier.", "series": "/lccn/sn83020093", "longitude": -71.31617, "normplace": "Lowell, MA", "place": "[Lowell, Mass.]", "country": "US", "latitude": 42.63342}, "/lccn/sn83025572": {"lang": "eng", "title": "The Providence gazette.", "series": "/lccn/sn83025572", "longitude": -71.41283, "normplace": "Providence, RI", "place": "Providence [R.I.]", "country": "US", "latitude": 41.82399}, "/lccn/sn83020091": {"lang": "eng", "title": "Lowell journal, and tri-weekly advertiser.", "series": "/lccn/sn83020091", "longitude": -71.31617, "normplace": "Lowell, MA", "place": "[Lowell, Mass.]", "country": "US", "latitude": 42.63342}, "/lccn/sn83020097": {"lang": "eng", "title": "The Lowell daily courier.", "series": "/lccn/sn83020097", "longitude": -71.31617, "normplace": "Lowell, MA", "place": "Lowell, Mass.", "country": "US", "latitude": 42.63342}, "/lccn/sn83020096": {"lang": "eng", "title": "Lowell daily journal and courier.", "series": "/lccn/sn83020096", "longitude": -71.31617, "normplace": "Lowell, MA", "place": "[Lowell, Mass.]", "country": "US", "latitude": 42.63342}, "/lccn/sn83020095": {"lang": "eng", "title": "Lowell daily courier.", "series": "/lccn/sn83020095", "longitude": -71.31617, "normplace": "Lowell, MA", "place": "[Lowell, Mass.]", "country": "US", "latitude": 42.63342}, "/lccn/sn83020094": {"lang": "eng", "title": "The Lowell courier.", "series": "/lccn/sn83020094", "longitude": -71.31617, "normplace": "Lowell, MA", "place": "[Lowell, Mass.]", "country": "US", "latitude": 42.63342}, "/lccn/sn89074249": {"lang": "eng", "title": "Dakota press.", "series": "/lccn/sn89074249", "longitude": -98.00315, "normplace": "Valley City, ND", "place": "Valley City, N.D.", "country": "US", "latitude": 46.92331}, "/lccn/sn84001915": {"lang": "eng", "title": "Sierra Vista herald.", "series": "/lccn/sn84001915", "longitude": -110.30368999999999, "normplace": "Sierra Vista, AZ", "place": "Sierra Vista, Ariz.", "country": "US", "latitude": 31.554540000000003}, "/lccn/sn93052615": {"lang": "eng", "title": "New-York evangelist.", "series": "/lccn/sn93052615", "longitude": -74.00596999999999, "normplace": "New York, NY", "place": "New-York [N.Y.", "country": "US", "latitude": 40.71427}, "aps/41401": {"lang": "eng", "title": "Porcupine's Political Censor (1796-1797)", "series": "aps/41401", "longitude": -75.16379, "normplace": "Philadelphia, PA", "place": "Philadelphia", "country": "US", "latitude": 39.952329999999996}, "/lccn/sn86069180": {"lang": "eng", "title": "Kentucky Irish American.", "series": "/lccn/sn86069180", "longitude": -85.75941, "normplace": "Louisville, KY", "place": "Louisville, Ky.", "country": "US", "latitude": 38.25424}, "/lccn/sn95060559": {"lang": "eng", "title": "Daily herald-dispatch.", "series": "/lccn/sn95060559", "longitude": -110.30368999999999, "normplace": "Sierra Vista, AZ", "place": "Sierra Vista, Ariz.", "country": "US", "latitude": 31.554540000000003}, "/lccn/sn86069456": {"lang": "eng", "title": "The Crittenden record.", "series": "/lccn/sn86069456", "longitude": -88.08113, "normplace": "Marion, KY", "place": "Marion, Ky.", "country": "US", "latitude": 37.33283}, "/lccn/sn95060557": {"lang": "eng", "title": "Sierra Vista herald-dispatch.", "series": "/lccn/sn95060557", "longitude": -110.30368999999999, "normplace": "Sierra Vista, AZ", "place": "Sierra Vista, Ariz.", "country": "US", "latitude": 31.554540000000003}, "/lccn/sn95060556": {"lang": "eng", "title": "Sierra Vista herald.", "series": "/lccn/sn95060556", "longitude": -110.30368999999999, "normplace": "Sierra Vista, AZ", "place": "Sierra Vista, Ariz.", "country": "US", "latitude": 31.554540000000003}, "/lccn/sn95060555": {"lang": "eng", "title": "Sierra Vista's Huachuca herald.", "series": "/lccn/sn95060555", "longitude": -110.30368999999999, "normplace": "Sierra Vista, AZ", "place": "Sierra Vista, Ariz.", "country": "US", "latitude": 31.554540000000003}, "/lccn/sn95060554": {"lang": "eng", "title": "Huachuca herald.", "series": "/lccn/sn95060554", "longitude": -110.30368999999999, "normplace": "Sierra Vista, AZ", "place": "Sierra Vista, Ariz.", "country": "US", "latitude": 31.554540000000003}, "/lccn/sn95060553": {"lang": "eng", "title": "Gateway times.", "series": "/lccn/sn95060553", "longitude": -110.30368999999999, "normplace": "Sierra Vista, AZ", "place": "Sierra Vista, Ariz.", "country": "US", "latitude": 31.554540000000003}, "/lccn/sn94051570": {"lang": "eng", "title": "The daily telegraph.", "series": "/lccn/sn94051570", "longitude": -95.93779, "normplace": "Omaha, NE", "place": "Omaha City, Neb. and Council Bluffs, Iowa", "country": "US", "latitude": 41.25861}, "aps/34552": {"lang": "eng", "title": "Israel's Advocate; or, The Restoration of the Jews Contemplated and Urged (1823-1827)", "series": "aps/34552", "longitude": -74.00596999999999, "normplace": "New York, NY", "place": "New York", "country": "US", "latitude": 40.71427}, "/lccn/sn86072124": {"lang": "eng", "title": "The Daily Republican and news.", "series": "/lccn/sn86072124", "longitude": -87.90647, "normplace": "Milwaukee, WI", "place": "Miwaukee [Wis", "country": "US", "latitude": 43.0389}, "/lccn/sn90062682": {"lang": "eng", "title": "New Hampshire patriot and state gazette.", "series": "/lccn/sn90062682", "longitude": -71.53757, "normplace": "Concord, NH", "place": "Concord, N.H.", "country": "US", "latitude": 43.20814}, "/lccn/sn85025582": {"lang": "eng", "title": "The St. Cloud journal-press.", "series": "/lccn/sn85025582", "longitude": -94.16249, "normplace": "Saint Cloud, MN", "place": "St. Cloud, Minn.", "country": "US", "latitude": 45.5608}, "/lccn/sn85025583": {"lang": "eng", "title": "The Saint Cloud press.", "series": "/lccn/sn85025583", "longitude": -94.16249, "normplace": "Saint Cloud, MN", "place": "Saint Cloud, Minn.", "country": "US", "latitude": 45.5608}, "/lccn/sn85025584": {"lang": "eng", "title": "St. Cloud visiter [sic].", "series": "/lccn/sn85025584", "longitude": -94.16249, "normplace": "Saint Cloud, MN", "place": "St. Cloud, Stearns County, Minn.", "country": "US", "latitude": 45.5608}, "/lccn/sn85025586": {"lang": "eng", "title": "The Saint Cloud times.", "series": "/lccn/sn85025586", "longitude": -94.16249, "normplace": "Saint Cloud, MN", "place": "Saint Cloud, Minn.", "country": "US", "latitude": 45.5608}, "/lccn/sn83020092": {"lang": "eng", "title": "Lowell daily journal.", "series": "/lccn/sn83020092", "longitude": -71.31617, "normplace": "Lowell, MA", "place": "Lowell, Mass.", "country": "US", "latitude": 42.63342}, "/lccn/sn85025589": {"lang": "deu", "title": "Minnesota Staats-Zeitung.", "series": "/lccn/sn85025589", "longitude": -93.09326999999999, "normplace": "Saint Paul, MN", "place": "St. Paul, Minn.", "country": "US", "latitude": 44.94441}, "/lccn/sn83025571": {"lang": "eng", "title": "The Providence gazette, and country journal.", "series": "/lccn/sn83025571", "longitude": -71.41283, "normplace": "Providence, RI", "place": "Providence [R.I.]", "country": "US", "latitude": 41.82399}, "/lccn/sn86063381": {"lang": "eng", "title": "The Bemidji daily pioneer.", "series": "/lccn/sn86063381", "longitude": -94.88028, "normplace": "Bemidji, MN", "place": "Bemidji, Minn.", "country": "US", "latitude": 47.47356}, "/lccn/sn92051225": {"lang": "eng", "title": "Daily advertiser and farmer.", "series": "/lccn/sn92051225", "longitude": -73.20483, "normplace": "Bridgeport, CT", "place": "Bridgeport [Conn.]", "country": "US", "latitude": 41.16704}, "/lccn/sn83030694": {"lang": "eng", "title": "New York times and commercial intelligencer.", "series": "/lccn/sn83030694", "longitude": -74.00596999999999, "normplace": "New York, NY", "place": "New York [N.Y.]", "country": "US", "latitude": 40.71427}, "/lccn/sn86071697": {"lang": "eng", "title": "The Lowell sun.", "series": "/lccn/sn86071697", "longitude": -71.31617, "normplace": "Lowell, MA", "place": "Lowell, Mass.", "country": "US", "latitude": 42.63342}, "europeana/POL/dziennik_slaski": {"lang": "None", "title": "Dziennik \u015al\u0105ski", "series": "europeana/POL/dziennik_slaski", "longitude": "None", "normplace": "\u2014", "place": "[missing]", "country": "EU", "latitude": "None"}, "/lccn/sn84023072": {"lang": "eng", "title": "New England review.", "series": "/lccn/sn84023072", "longitude": -72.68509, "normplace": "Hartford, CT", "place": "Hartford, Conn.", "country": "US", "latitude": 41.763709999999996}, "/lccn/sn86071698": {"lang": "eng", "title": "The sun.", "series": "/lccn/sn86071698", "longitude": -71.31617, "normplace": "Lowell, MA", "place": "Lowell, Mass.", "country": "US", "latitude": 42.63342}, "/lccn/sn92053238": {"lang": "eng", "title": "Weekly free trader-journal.", "series": "/lccn/sn92053238", "longitude": -88.84258, "normplace": "Ottawa, IL", "place": "Ottawa, Ill.", "country": "US", "latitude": 41.34559}, "aps/24613": {"lang": "eng", "title": "The Polyanthos (1805-1814)", "series": "aps/24613", "longitude": -71.05977, "normplace": "Boston, MA", "place": "Boston", "country": "US", "latitude": 42.35843}, "/lccn/sn96077402": {"lang": "eng", "title": "The courier-northerner.", "series": "/lccn/sn96077402", "longitude": -85.89112, "normplace": "Paw Paw, MI", "place": "Paw Paw, Mich.", "country": "US", "latitude": 42.21782}, "/lccn/sn90061663": {"lang": "eng", "title": "The Rich Hill tribune.", "series": "/lccn/sn90061663", "longitude": -94.36106, "normplace": "Rich Hill, MO", "place": "Rich Hill, Mo.", "country": "US", "latitude": 38.09642}, "/lccn/sn88077456": {"lang": "eng", "title": "The Dispatch.", "series": "/lccn/sn88077456", "longitude": -83.61159, "normplace": "Hillsboro, OH", "place": "Hillsboro, Ohio", "country": "US", "latitude": 39.202290000000005}, "/lccn/sn88077457": {"lang": "eng", "title": "Hillsborough gazette, and Highland advertiser.", "series": "/lccn/sn88077457", "longitude": -83.61159, "normplace": "Hillsboro, OH", "place": "Hillsborough [Hillsboro], Ohio", "country": "US", "latitude": 39.202290000000005}, "/lccn/sn83020500": {"lang": "eng", "title": "The Repertory and general advertiser.", "series": "/lccn/sn83020500", "longitude": -71.05977, "normplace": "Boston, MA", "place": "Boston [Mass.]", "country": "US", "latitude": 42.35843}, "aps/24419": {"lang": "eng", "title": "The New York Monthly Chronicle of Medicine and Surgery (1824-1825)", "series": "aps/24419", "longitude": -74.00596999999999, "normplace": "New York, NY", "place": "New York", "country": "US", "latitude": 40.71427}, "aps/35598": {"lang": "eng", "title": "The Rose Bud, or Youth's Gazette (1832-1833)", "series": "aps/35598", "longitude": -79.93092, "normplace": "Charleston, SC", "place": "Charleston, S.C.", "country": "US", "latitude": 32.77657}, "/lccn/sn87065527": {"lang": "eng", "title": "The Chronicle-star.", "series": "/lccn/sn87065527", "longitude": -88.55613000000001, "normplace": "Pascagoula, MS", "place": "Pascagoula, Miss.", "country": "US", "latitude": 30.365759999999998}, "/lccn/sn88077458": {"lang": "eng", "title": "The Peoples press.", "series": "/lccn/sn88077458", "longitude": -83.61159, "normplace": "Hillsboro, OH", "place": "Hillsboro, Ohio", "country": "US", "latitude": 39.202290000000005}, "/lccn/sn87065521": {"lang": "eng", "title": "The Panola star.", "series": "/lccn/sn87065521", "longitude": -89.964, "normplace": "Panola, MS", "place": "[Panola] Panola County, Miss.", "country": "US", "latitude": 34.328}, "/lccn/sn87065522": {"lang": "eng", "title": "The Panola weekly star.", "series": "/lccn/sn87065522", "longitude": -90.32426, "normplace": "Sardis, MS", "place": "Sardis, Miss.", "country": "US", "latitude": 31.801}, "/lccn/sn87065523": {"lang": "eng", "title": "The Southern star.", "series": "/lccn/sn87065523", "longitude": -89.964, "normplace": "Panola, MS", "place": "Panola, Miss.", "country": "US", "latitude": 34.328}, "/lccn/sn93067671": {"lang": "eng", "title": "The Pickens sentinel.", "series": "/lccn/sn93067671", "longitude": -82.70736, "normplace": "Pickens, SC", "place": "Pickens, S.C.", "country": "US", "latitude": 34.88345}, "/lccn/sn93067670": {"lang": "eng", "title": "The Abbeville bulletin.", "series": "/lccn/sn93067670", "longitude": -82.37901, "normplace": "Abbeville, SC", "place": "Abbeville, S.C.", "country": "US", "latitude": 34.17817}, "/lccn/sn90060931": {"lang": "eng", "title": "The northwestern bulletin.", "series": "/lccn/sn90060931", "longitude": -93.09326999999999, "normplace": "Saint Paul, MN", "place": "St. Paul, Minn. ;", "country": "US", "latitude": 44.94441}, "/lccn/sn90060932": {"lang": "eng", "title": "The northwestern bulletin-appeal.", "series": "/lccn/sn90060932", "longitude": -93.09326999999999, "normplace": "Saint Paul, MN", "place": "St. Paul, Minn.;", "country": "US", "latitude": 44.94441}, "/lccn/sn85055008": {"lang": "eng", "title": "Weekly press.", "series": "/lccn/sn85055008", "longitude": -75.16379, "normplace": "Philadelphia, PA", "place": "Philadelphia, Pa.", "country": "US", "latitude": 39.952329999999996}, "aps/24418": {"lang": "eng", "title": "New York Medical and Philosophical Journal and Review (1809-1811)", "series": "aps/24418", "longitude": -74.00596999999999, "normplace": "New York, NY", "place": "New York", "country": "US", "latitude": 40.71427}, "aps/35595": {"lang": "eng", "title": "New Englander and Yale Review (1886-1892)", "series": "aps/35595", "longitude": -72.92815999999999, "normplace": "New Haven, CT", "place": "New Haven", "country": "US", "latitude": 41.30815}, "/lccn/sn83035099": {"lang": "eng", "title": "The Western courier, and Portage County Democrat.", "series": "/lccn/sn83035099", "longitude": -81.24205, "normplace": "Ravenna, OH", "place": "Ravenna, Ohio", "country": "US", "latitude": 41.15756}, "/lccn/sn83035098": {"lang": "eng", "title": "Western courier.", "series": "/lccn/sn83035098", "longitude": -81.24205, "normplace": "Ravenna, OH", "place": "Ravenna, Ohio", "country": "US", "latitude": 41.15756}, "/lccn/sn86063037": {"lang": "eng", "title": "Idaho messenger.", "series": "/lccn/sn86063037", "longitude": -114.23173, "normplace": "Challis, ID", "place": "Challis, Idaho", "country": "US", "latitude": 44.50464}, "/lccn/sn82000189": {"lang": "eng", "title": "The Washington critic.", "series": "/lccn/sn82000189", "longitude": -77.03636999999999, "normplace": "Washington, DC", "place": "Washington, D.C.", "country": "US", "latitude": 38.895109999999995}, "aps/35590": {"lang": "eng", "title": "The Methodist Magazine (1818-1828)", "series": "aps/35590", "longitude": -74.00596999999999, "normplace": "New York, NY", "place": "New York", "country": "US", "latitude": 40.71427}, "/lccn/sn83025913": {"lang": "eng", "title": "The Pittsburgh commercial.", "series": "/lccn/sn83025913", "longitude": -79.99589, "normplace": "Pittsburgh, PA", "place": "Pittsburgh [Pa.]", "country": "US", "latitude": 40.44062}, "aps/24180": {"lang": "eng", "title": "The Western Academician and Journal of Education and Science (1837-1838)", "series": "aps/24180", "longitude": -84.45689, "normplace": "Cincinnati, OH", "place": "Cincinnati", "country": "US", "latitude": 39.162}, "/lccn/sn83045719": {"lang": "deu", "title": "Milwaukee-Sonntagspost.", "series": "/lccn/sn83045719", "longitude": -91.63932, "normplace": "Winona, MN", "place": "Winona, Minn. ;", "country": "US", "latitude": 44.04996}, "/lccn/sn83045718": {"lang": "deu", "title": "Die Weser-Nachrichten.", "series": "/lccn/sn83045718", "longitude": -87.65005, "normplace": "Chicago, IL", "place": "Chicago, Ill.", "country": "US", "latitude": 41.85003}, "/lccn/sn83025917": {"lang": "eng", "title": "The Somerset herald and farmers' and mechanics' register.", "series": "/lccn/sn83025917", "longitude": -79.07808, "normplace": "Somerset, PA", "place": "Somerset, Pa.", "country": "US", "latitude": 40.00841}, "/lccn/sn83025916": {"lang": "eng", "title": "The Pittsburgh post.", "series": "/lccn/sn83025916", "longitude": -79.99589, "normplace": "Pittsburgh, PA", "place": "Pittsburgh, Pa.", "country": "US", "latitude": 40.44062}, "/lccn/sn95047194": {"lang": "eng", "title": "Lynn Haven free press.", "series": "/lccn/sn95047194", "longitude": -85.64826, "normplace": "Lynn Haven, FL", "place": "Lynn Haven, Fla.", "country": "US", "latitude": 30.24548}, "/lccn/sn83045242": {"lang": "eng", "title": "The National intelligencer and Washington advertiser.", "series": "/lccn/sn83045242", "longitude": -77.03636999999999, "normplace": "Washington, DC", "place": "Washington City [D.C.]", "country": "US", "latitude": 38.895109999999995}, "aps/35593": {"lang": "eng", "title": "The Methodist Review (1885-1931)", "series": "aps/35593", "longitude": -74.00596999999999, "normplace": "New York, NY", "place": "New York", "country": "US", "latitude": 40.71427}, "/lccn/sn93055649": {"lang": "eng", "title": "Cairo tri-weekly times.", "series": "/lccn/sn93055649", "longitude": -89.17645999999999, "normplace": "Cairo, IL", "place": "Cairo [Ill.]", "country": "US", "latitude": 37.00533}, "/lccn/sn93055648": {"lang": "eng", "title": "The War eagle daily evening extra.", "series": "/lccn/sn93055648", "longitude": -89.17645999999999, "normplace": "Cairo, IL", "place": "Cairo, Ill.", "country": "US", "latitude": 37.00533}, "/lccn/sn83045244": {"lang": "eng", "title": "Weekly Oklahoman.", "series": "/lccn/sn83045244", "longitude": -97.51643, "normplace": "Oklahoma City, OK", "place": "Oklahoma City, Okla.", "country": "US", "latitude": 35.46756}, "/lccn/sn84026065": {"lang": "eng", "title": "The Family messenger and national gleaner.", "series": "/lccn/sn84026065", "longitude": -75.16379, "normplace": "Philadelphia, PA", "place": "Philadelphia [Pa.]", "country": "US", "latitude": 39.952329999999996}, "/lccn/sn84022019": {"lang": "eng", "title": "Semiweekly jimplecute.", "series": "/lccn/sn84022019", "longitude": -94.34519, "normplace": "Jefferson, TX", "place": "Jefferson, Tex.", "country": "US", "latitude": 32.75736}, "/lccn/sn84022017": {"lang": "eng", "title": "The daily jimplecute.", "series": "/lccn/sn84022017", "longitude": -94.34519, "normplace": "Jefferson, TX", "place": "Jefferson, Tex.", "country": "US", "latitude": 32.75736}, "aps/24416": {"lang": "eng", "title": "The Yale Literary Magazine. Conducted by the Students of Yale University (1836-1851)", "series": "aps/24416", "longitude": -72.92815999999999, "normplace": "New Haven, CT", "place": "New Haven", "country": "US", "latitude": 41.30815}, "/lccn/sn88085919": {"lang": "eng", "title": "The Newport pilot.", "series": "/lccn/sn88085919", "longitude": -122.18068000000001, "normplace": "Newport, WA", "place": "Newport, Wash.", "country": "US", "latitude": 47.57121}, "/lccn/sn83016835": {"lang": "eng", "title": "State times advocate.", "series": "/lccn/sn83016835", "longitude": -91.15455, "normplace": "Baton Rouge, LA", "place": "Baton Rouge, La.", "country": "US", "latitude": 30.45075}, "/lccn/sn83016836": {"lang": "eng", "title": "St. Cloud Democrat.", "series": "/lccn/sn83016836", "longitude": -94.16249, "normplace": "Saint Cloud, MN", "place": "Saint Cloud, Stearns County, Minn.", "country": "US", "latitude": 45.5608}, "/lccn/sn83016830": {"lang": "eng", "title": "New Ulm daily journal and the Brown County journal.", "series": "/lccn/sn83016830", "longitude": -94.46053, "normplace": "New Ulm, MN", "place": "New Ulm, Brown County, Minn.", "country": "US", "latitude": 44.312459999999994}, "/lccn/sn85047239": {"lang": "eng", "title": "The daily herald.", "series": "/lccn/sn85047239", "longitude": -157.85833, "normplace": "Honolulu, HI", "place": "Honolulu, Hawaiian Islands", "country": "US", "latitude": 21.30694}, "/lccn/sn94052999": {"lang": "eng", "title": "The San Francisco journal of commerce.", "series": "/lccn/sn94052999", "longitude": -122.41942, "normplace": "San Francisco, CA", "place": "San Francisco, Cal.", "country": "US", "latitude": 37.77493}, "/lccn/sn84038363": {"lang": "eng", "title": "Cairo daily Democrat.", "series": "/lccn/sn84038363", "longitude": -89.17645999999999, "normplace": "Cairo, IL", "place": "Cairo, Ill.", "country": "US", "latitude": 37.00533}, "/lccn/sn84029853": {"lang": "eng", "title": "The Globe-republican.", "series": "/lccn/sn84029853", "longitude": -100.01708, "normplace": "Dodge City, KS", "place": "Dodge City, Kan.", "country": "US", "latitude": 37.7528}, "/lccn/sn85026059": {"lang": "eng", "title": "Semi-weekly dispatch.", "series": "/lccn/sn85026059", "longitude": -77.46025999999999, "normplace": "Richmond, VA", "place": "Richmond, Va.", "country": "US", "latitude": 37.55376}, "/lccn/sn84026288": {"lang": "eng", "title": "Daily true American.", "series": "/lccn/sn84026288", "longitude": -74.74294, "normplace": "Trenton, NJ", "place": "Trenton, N.J.", "country": "US", "latitude": 40.21705}, "/lccn/sn84022909": {"lang": "eng", "title": "Daily people.", "series": "/lccn/sn84022909", "longitude": -71.53757, "normplace": "Concord, NH", "place": "Concord, N.H.", "country": "US", "latitude": 43.20814}, "/lccn/sn84038364": {"lang": "eng", "title": "Cairo evening times.", "series": "/lccn/sn84038364", "longitude": -89.17645999999999, "normplace": "Cairo, IL", "place": "Cairo, Ill.", "country": "US", "latitude": 37.00533}, "/lccn/sn84026283": {"lang": "eng", "title": "The United States gazette.", "series": "/lccn/sn84026283", "longitude": -75.16379, "normplace": "Philadelphia, PA", "place": "Philadelphia [Pa.]", "country": "US", "latitude": 39.952329999999996}, "/lccn/sn84026282": {"lang": "eng", "title": "The union, United States gazette and true American.", "series": "/lccn/sn84026282", "longitude": -75.16379, "normplace": "Philadelphia, PA", "place": "Philadelphia [Pa.]", "country": "US", "latitude": 39.952329999999996}, "/lccn/sn85026051": {"lang": "eng", "title": "Fremont weekly freeman.", "series": "/lccn/sn85026051", "longitude": -83.12186, "normplace": "Fremont, OH", "place": "Fremont, Sandusky County, Ohio", "country": "US", "latitude": 41.35033}, "/lccn/sn84029595": {"lang": "eng", "title": "The Jeffersonian gazette.", "series": "/lccn/sn84029595", "longitude": -95.23525, "normplace": "Lawrence, KS", "place": "Lawrence, Kan.", "country": "US", "latitude": 38.97167}, "/lccn/sn84029593": {"lang": "eng", "title": "The evening standard.", "series": "/lccn/sn84029593", "longitude": -95.23525, "normplace": "Lawrence, KS", "place": "Lawrence, Kan.", "country": "US", "latitude": 38.97167}, "/lccn/sn87090126": {"lang": "eng", "title": "The Farmers' vindicator.", "series": "/lccn/sn87090126", "longitude": -90.18481, "normplace": "Jackson, MS", "place": "Jackson, Miss.", "country": "US", "latitude": 32.298759999999994}, "/lccn/sn84029263": {"lang": "eng", "title": "The Walnut eagle.", "series": "/lccn/sn84029263", "longitude": -95.07803, "normplace": "Walnut, KS", "place": "Walnut, Kan.", "country": "US", "latitude": 37.601440000000004}, "europeana/FRA/l_univers": {"lang": "fra", "title": "L'Univers", "series": "europeana/FRA/l_univers", "longitude": 2.3488, "normplace": "Paris (FR)", "place": "Paris (FR)", "country": "EU", "latitude": 48.85341}, "/lccn/sn87075048": {"lang": "eng", "title": "The Ohio Democrat.", "series": "/lccn/sn87075048", "longitude": -82.4071, "normplace": "Logan, OH", "place": "Logan, O. [Ohio]", "country": "US", "latitude": 39.54007}, "/lccn/sn87075042": {"lang": "eng", "title": "The Logan daily news and the Democratic-sentinel.", "series": "/lccn/sn87075042", "longitude": -82.4071, "normplace": "Logan, OH", "place": "Logan, Hocking County, Ohio", "country": "US", "latitude": 39.54007}, "/lccn/sn87075041": {"lang": "eng", "title": "The Logan daily news.", "series": "/lccn/sn87075041", "longitude": -82.4071, "normplace": "Logan, OH", "place": "Logan, Ohio", "country": "US", "latitude": 39.54007}, "/lccn/sn86069457": {"lang": "eng", "title": "Crittenden press.", "series": "/lccn/sn86069457", "longitude": -88.08113, "normplace": "Marion, KY", "place": "Marion, Ky.", "country": "US", "latitude": 37.33283}, "/lccn/sn85042448": {"lang": "eng", "title": "The Dalles daily chronicle.", "series": "/lccn/sn85042448", "longitude": -121.17868, "normplace": "The Dalles, OR", "place": "The Dalles, Or.", "country": "US", "latitude": 45.594559999999994}, "/lccn/sn88076490": {"lang": "eng", "title": "Williston farmers press.", "series": "/lccn/sn88076490", "longitude": -103.61797, "normplace": "Williston, ND", "place": "Williston, N.D.", "country": "US", "latitude": 48.14697}, "aps/24413": {"lang": "eng", "title": "Baltimore Medical and Surgical Journal and Review. Supported by an Association of Physicians and Surgeons (1833-1834)", "series": "aps/24413", "longitude": -76.61219, "normplace": "Baltimore, MD", "place": "Baltimore", "country": "US", "latitude": 39.29038}, "/lccn/sn86088055": {"lang": "eng", "title": "The Lubbock avalanche.", "series": "/lccn/sn86088055", "longitude": -101.85517, "normplace": "Lubbock, TX", "place": "Lubbock, Tex.", "country": "US", "latitude": 33.57786}, "trove/572": {"lang": "eng", "title": "Kooweerup Sun, Lang Lang Guardian and Cranbourne Shire Record  (Vic. : 1918)", "series": "trove/572", "longitude": "None", "normplace": "Kooweerup, VIC", "place": "None", "country": "AU", "latitude": "None"}, "/lccn/sn86069459": {"lang": "eng", "title": "Twice-a-week record-press.", "series": "/lccn/sn86069459", "longitude": -88.08113, "normplace": "Marion, KY", "place": "Marion, Ky.", "country": "US", "latitude": 37.33283}, "trove/570": {"lang": "eng", "title": "Inglewood Advertiser (Vic. : 1914 - 1918)", "series": "trove/570", "longitude": 143.8683, "normplace": "Inglewood, VIC", "place": "None", "country": "AU", "latitude": -36.57504}, "/lccn/sn85053128": {"lang": "eng", "title": "The Big Muddy journal.", "series": "/lccn/sn85053128", "longitude": -104.49606999999999, "normplace": "Froid, MT", "place": "Froid, Mont.", "country": "US", "latitude": 48.33447}, "trove/576": {"lang": "eng", "title": "Lancefield Mercury and West Bourke Agricultural Record (Vic. : 1914 - 1918)", "series": "trove/576", "longitude": 144.73596, "normplace": "Lancefield, VIC", "place": "None", "country": "AU", "latitude": -37.27733}, "trove/577": {"lang": "eng", "title": "Lang Lang Guardian  (Vic. : 1914 - 1918)", "series": "trove/577", "longitude": "None", "normplace": "Lang, VIC", "place": "None", "country": "AU", "latitude": "None"}, "/lccn/sn82016368": {"lang": "eng", "title": "The United States journal.", "series": "/lccn/sn82016368", "longitude": -77.03636999999999, "normplace": "Washington, DC", "place": "Washington City [D.C.]", "country": "US", "latitude": 38.895109999999995}, "/lccn/sn86069458": {"lang": "eng", "title": "Crittenden record=press.", "series": "/lccn/sn86069458", "longitude": -88.08113, "normplace": "Marion, KY", "place": "Marion, Ky.", "country": "US", "latitude": 37.33283}, "/lccn/sn85058315": {"lang": "eng", "title": "The weekly sun.", "series": "/lccn/sn85058315", "longitude": -111.97383, "normplace": "Ogden, UT", "place": "Ogden, Utah", "country": "US", "latitude": 41.223}, "/lccn/sn85058314": {"lang": "eng", "title": "The weekly standard.", "series": "/lccn/sn85058314", "longitude": -111.97383, "normplace": "Ogden, UT", "place": "Ogden, Utah", "country": "US", "latitude": 41.223}, "/lccn/sn85053121": {"lang": "eng", "title": "The Suffrage daily news.", "series": "/lccn/sn85053121", "longitude": -112.03611000000001, "normplace": "Helena, MT", "place": "Helena, Mont.", "country": "US", "latitude": 46.59271}, "/lccn/sn85058316": {"lang": "eng", "title": "The Semi-weekly standard.", "series": "/lccn/sn85058316", "longitude": -111.97383, "normplace": "Ogden, UT", "place": "Ogden, Utah", "country": "US", "latitude": 41.223}, "/lccn/sn85053127": {"lang": "eng", "title": "Froid weekly.", "series": "/lccn/sn85053127", "longitude": -104.49606999999999, "normplace": "Froid, MT", "place": "Froid, Mont.", "country": "US", "latitude": 48.33447}, "/lccn/sn85053126": {"lang": "eng", "title": "The Froid tribune.", "series": "/lccn/sn85053126", "longitude": -104.49606999999999, "normplace": "Froid, MT", "place": "Froid, Mont.", "country": "US", "latitude": 48.33447}, "/lccn/sn85058313": {"lang": "eng", "title": "The Semi-weekly standard.", "series": "/lccn/sn85058313", "longitude": -111.97383, "normplace": "Ogden, UT", "place": "Ogden, Utah", "country": "US", "latitude": 41.223}, "/lccn/sn95047226": {"lang": "eng", "title": "Arcadia daily news.", "series": "/lccn/sn95047226", "longitude": -81.85842, "normplace": "Arcadia, FL", "place": "Arcadia, Fla.", "country": "US", "latitude": 27.21588}, "/lccn/sn95047227": {"lang": "eng", "title": "The champion.", "series": "/lccn/sn95047227", "longitude": -81.85842, "normplace": "Arcadia, FL", "place": "Arcadia, Fla.", "country": "US", "latitude": 27.21588}, "/lccn/sn85026279": {"lang": "eng", "title": "The Tiffin tribune.", "series": "/lccn/sn85026279", "longitude": -83.17797, "normplace": "Tiffin, OH", "place": "Tiffin, Ohio", "country": "US", "latitude": 41.1145}, "/lccn/sn95047228": {"lang": "eng", "title": "The enterprise.", "series": "/lccn/sn95047228", "longitude": -81.85842, "normplace": "Arcadia, FL", "place": "Arcadia, Fla.", "country": "US", "latitude": 27.21588}, "/lccn/sn95047229": {"lang": "eng", "title": "The Arcadia enterprise.", "series": "/lccn/sn95047229", "longitude": -81.85842, "normplace": "Arcadia, FL", "place": "Arcadia, Fla.", "country": "US", "latitude": 27.21588}, "/lccn/sn84036198": {"lang": "eng", "title": "The Colored citizen.", "series": "/lccn/sn84036198", "longitude": -112.03611000000001, "normplace": "Helena, MT", "place": "Helena, Mont.", "country": "US", "latitude": 46.59271}, "/lccn/sn84036199": {"lang": "eng", "title": "The Montana plaindealer.", "series": "/lccn/sn84036199", "longitude": -112.03611000000001, "normplace": "Helena, MT", "place": "Helena, Mont.", "country": "US", "latitude": 46.59271}, "/lccn/sn85026584": {"lang": "eng", "title": "The Iosco County gazette.", "series": "/lccn/sn85026584", "longitude": -83.5147, "normplace": "Tawas City, MI", "place": "Tawas City [i.e. Tawas], Mich.", "country": "US", "latitude": 44.269459999999995}, "/lccn/sn2006060595": {"lang": "eng", "title": "The Times.", "series": "/lccn/sn2006060595", "longitude": -77.3411, "normplace": "Reston, VA", "place": "Reston, Va.", "country": "US", "latitude": 38.968720000000005}, "/lccn/sn2006060599": {"lang": "eng", "title": "Mount Vernon gazette.", "series": "/lccn/sn2006060599", "longitude": -77.17748, "normplace": "McLean, VA", "place": "McLean, Va.", "country": "US", "latitude": 38.93428}, "/lccn/sn90059185": {"lang": "eng", "title": "The Virginian.", "series": "/lccn/sn90059185", "longitude": -92.53657, "normplace": "Virginia, MN", "place": "Virginia, Minn.", "country": "US", "latitude": 47.52326}, "/lccn/00225457": {"lang": "eng", "title": "New Mississippian.", "series": "/lccn/00225457", "longitude": -90.18481, "normplace": "Jackson, MS", "place": "Jackson [Miss.]", "country": "US", "latitude": 32.298759999999994}, "aps/40882": {"lang": "eng", "title": "The Monthly Register, Magazine, and Review of the United States (1805-1807)", "series": "aps/40882", "longitude": -79.93092, "normplace": "Charleston, SC", "place": "Charleston, S.C.; New York", "country": "US", "latitude": 32.77657}, "/lccn/sn84024750": {"lang": "eng", "title": "Salt Lake daily telegraph.", "series": "/lccn/sn84024750", "longitude": -111.89105, "normplace": "Salt Lake City, UT", "place": "Great Salt Lake City, Utah", "country": "US", "latitude": 40.76078}, "/lccn/sn84024757": {"lang": "eng", "title": "Deseret semi-weekly news.", "series": "/lccn/sn84024757", "longitude": -111.89105, "normplace": "Salt Lake City, UT", "place": "Salt Lake City, Utah", "country": "US", "latitude": 40.76078}, "aps/24926": {"lang": "eng", "title": "American Educational Monthly, and New York Teacher (1867-1867)", "series": "aps/24926", "longitude": -74.00596999999999, "normplace": "New York, NY", "place": "New York", "country": "US", "latitude": 40.71427}, "trove/316": {"lang": "eng", "title": "Gippsland Mercury (Sale, Vic. : 1914 - 1918)", "series": "trove/316", "longitude": 147.06802, "normplace": "Sale, VIC", "place": "None", "country": "AU", "latitude": -38.11095}, "trove/317": {"lang": "eng", "title": "Maryborough and Dunolly Advertiser (Vic. : 1914 - 1918)", "series": "trove/317", "longitude": 143.73923, "normplace": "Maryborough, VIC", "place": "None", "country": "AU", "latitude": -37.04562}, "trove/314": {"lang": "deu", "title": "Suedaustralische Zeitung (Adelaide, SA : 1850 - 1851)", "series": "trove/314", "longitude": 138.59863, "normplace": "Adelaide, SA", "place": "None", "country": "AU", "latitude": -34.92866}, "trove/315": {"lang": "eng", "title": "Bendigonian (Bendigo, Vic. : 1914 - 1918)", "series": "trove/315", "longitude": 144.28024, "normplace": "Bendigo, VIC", "place": "None", "country": "AU", "latitude": -36.758179999999996}, "/lccn/sn99066821": {"lang": "eng", "title": "The News-gazette.", "series": "/lccn/sn99066821", "longitude": -78.48223, "normplace": "Lexington, VA", "place": "Lexington, Va.", "country": "US", "latitude": 38.19735}, "aps/35116": {"lang": "eng", "title": "The Youth's Companion (1827-1929)", "series": "aps/35116", "longitude": -71.05977, "normplace": "Boston, MA", "place": "Boston", "country": "US", "latitude": 42.35843}, "trove/310": {"lang": "eng", "title": "Richmond Guardian (Vic. : 1917 - 1918)", "series": "trove/310", "longitude": 145.00176000000002, "normplace": "Richmond, VIC", "place": "None", "country": "AU", "latitude": -37.81819}, "trove/311": {"lang": "eng", "title": "Riverine Herald (Echuca, Vic. : Moama, NSW : 1869 - 1954)", "series": "trove/311", "longitude": 144.75185, "normplace": "Echuca, VIC", "place": "None", "country": "AU", "latitude": -36.140570000000004}, "aps/40881": {"lang": "eng", "title": "The Monthly Miscellany; or Vermont Magazine (1794-1794)", "series": "aps/40881", "longitude": -73.19677, "normplace": "Bennington, VT", "place": "Bennington", "country": "US", "latitude": 42.87813}, "/lccn/sn83016713": {"lang": "eng", "title": "New Orleans states.", "series": "/lccn/sn83016713", "longitude": -90.07507, "normplace": "New Orleans, LA", "place": "New Orleans, La.", "country": "US", "latitude": 29.95465}, "trove/318": {"lang": "eng", "title": "Sandringham Southern Cross (Vic. : 1914 - 1918)", "series": "trove/318", "longitude": 145.0, "normplace": "Sandringham, VIC", "place": "None", "country": "AU", "latitude": -37.95}, "trove/319": {"lang": "eng", "title": "Leader (Melbourne, Vic. : 1862 - 1918)", "series": "trove/319", "longitude": 144.96331999999998, "normplace": "Melbourne, VIC", "place": "None", "country": "AU", "latitude": -37.814}, "aps/41377": {"lang": "eng", "title": "The Cabinet; a Repository of Polite Literature (1811-1811)", "series": "aps/41377", "longitude": -71.05977, "normplace": "Boston, MA", "place": "Boston", "country": "US", "latitude": 42.35843}, "aps/41376": {"lang": "eng", "title": "The Bankers' Magazine (1894-1895)", "series": "aps/41376", "longitude": -71.10561, "normplace": "Cambridge, MA", "place": "Cambridge, Mass.", "country": "US", "latitude": 42.3751}, "aps/24819": {"lang": "eng", "title": "Christian Register (1822-1823)", "series": "aps/24819", "longitude": -84.47771999999999, "normplace": "Lexington, KY", "place": "Lexington, Ky.", "country": "US", "latitude": 37.988690000000005}, "aps/41374": {"lang": "eng", "title": "The Bankers' Magazine and State Financial Register (1846-1849)", "series": "aps/41374", "longitude": -71.10561, "normplace": "Cambridge, MA", "place": "Cambridge, Mass.", "country": "US", "latitude": 42.3751}, "aps/24410": {"lang": "eng", "title": "Ladies' Magazine of Literature, Fashion and Fine Arts (1844-1844)", "series": "aps/24410", "longitude": -75.16379, "normplace": "Philadelphia, PA", "place": "Philadelphia", "country": "US", "latitude": 39.952329999999996}, "aps/24813": {"lang": "eng", "title": "Health (1900-1913)", "series": "aps/24813", "longitude": -74.00596999999999, "normplace": "New York, NY", "place": "New York", "country": "US", "latitude": 40.71427}, "aps/24812": {"lang": "eng", "title": "Herald of Health (1864-1892)", "series": "aps/24812", "longitude": -74.00596999999999, "normplace": "New York, NY", "place": "New York", "country": "US", "latitude": 40.71427}, "aps/24811": {"lang": "eng", "title": "Hygienic Teacher and Water - Cure Journal (1862-1862)", "series": "aps/24811", "longitude": -74.00596999999999, "normplace": "New York, NY", "place": "New York", "country": "US", "latitude": 40.71427}, "aps/24810": {"lang": "eng", "title": "Water - Cure Journal (1845-1861)", "series": "aps/24810", "longitude": -74.00596999999999, "normplace": "New York, NY", "place": "New York", "country": "US", "latitude": 40.71427}, "aps/24817": {"lang": "eng", "title": "The Monthly Repository and Library of Entertaining Knowledge (1830-1834)", "series": "aps/24817", "longitude": -74.00596999999999, "normplace": "New York, NY", "place": "New York", "country": "US", "latitude": 40.71427}, "aps/24816": {"lang": "eng", "title": "The Musical Magazine; or, Repository of Musical Science, Literature and Intelligence (1839-1842)", "series": "aps/24816", "longitude": -71.05977, "normplace": "Boston, MA", "place": "Boston", "country": "US", "latitude": 42.35843}, "/lccn/sn94057790": {"lang": "eng", "title": "The news-journal.", "series": "/lccn/sn94057790", "longitude": -81.02283, "normplace": "Daytona Beach, FL", "place": "Daytona Beach, Fla.", "country": "US", "latitude": 29.21081}, "aps/24814": {"lang": "eng", "title": "Weekly Register (1811-1814)", "series": "aps/24814", "longitude": -76.61219, "normplace": "Baltimore, MD", "place": "Baltimore; Washington; Baltimore; Philadelphia", "country": "US", "latitude": 39.29038}, "/lccn/sn84026939": {"lang": "eng", "title": "The city gazette, and the daily advertiser.", "series": "/lccn/sn84026939", "longitude": -79.93092, "normplace": "Charleston, SC", "place": "Charleston", "country": "US", "latitude": 32.77657}, "/lccn/sn84028889": {"lang": "eng", "title": "The Ohio Democrat.", "series": "/lccn/sn84028889", "longitude": -81.47400999999999, "normplace": "Dover, OH", "place": "Canal Dover, Ohio", "country": "US", "latitude": 40.52062}, "/lccn/sn84028888": {"lang": "eng", "title": "The Ohio Democrat and Dover advertiser.", "series": "/lccn/sn84028888", "longitude": -81.47400999999999, "normplace": "Dover, OH", "place": "Canal Dover, Ohio", "country": "US", "latitude": 40.52062}, "/lccn/sn89066619": {"lang": "eng", "title": "The Cape County herald.", "series": "/lccn/sn89066619", "longitude": -89.51815, "normplace": "Cape Girardeau, MO", "place": "Cape Girardeau, Mo.", "country": "US", "latitude": 37.30588}, "/lccn/sn83021447": {"lang": "eng", "title": "The Mountaineer.", "series": "/lccn/sn83021447", "longitude": -111.89105, "normplace": "Salt Lake City, UT", "place": "Great Salt Lake City [Utah", "country": "US", "latitude": 40.76078}, "/lccn/sn83021446": {"lang": "eng", "title": "The Salt Lake semi-weekly herald.", "series": "/lccn/sn83021446", "longitude": -111.89105, "normplace": "Salt Lake City, UT", "place": "Salt Lake City, Utah", "country": "US", "latitude": 40.76078}, "/lccn/sn85042383": {"lang": "eng", "title": "Dawson County review and the Yellowstone monitor.", "series": "/lccn/sn85042383", "longitude": -104.71246, "normplace": "Glendive, MT", "place": "Glendive, Mont.", "country": "US", "latitude": 47.105290000000004}, "/lccn/sn84028880": {"lang": "eng", "title": "Spirit of the times.", "series": "/lccn/sn84028880", "longitude": -82.68294, "normplace": "Ironton, OH", "place": "Ironton, Ohio", "country": "US", "latitude": 38.53675}, "aps/35712": {"lang": "eng", "title": "Reformed Church Messenger (1890-1906)", "series": "aps/35712", "longitude": -77.6611, "normplace": "Chambersburg, PA", "place": "Chambersburg, Pa.; Philadelphia", "country": "US", "latitude": 39.93759}, "/lccn/sn85029337": {"lang": "eng", "title": "The Leavenworth press.", "series": "/lccn/sn85029337", "longitude": -94.92246, "normplace": "Leavenworth, KS", "place": "Leavenworth, Kan.", "country": "US", "latitude": 39.31111}, "aps/35716": {"lang": "eng", "title": "North American. Or, Weekly Journal of Politics, Science and Literature (1827-1827)", "series": "aps/35716", "longitude": -76.61219, "normplace": "Baltimore, MD", "place": "Baltimore", "country": "US", "latitude": 39.29038}, "aps/35717": {"lang": "eng", "title": "The North American Miscellany; a Weekly Magazine of Choice Selections from the Current Literature of this Country and Europe (1851-1851)", "series": "aps/35717", "longitude": -74.00596999999999, "normplace": "New York, NY", "place": "New York", "country": "US", "latitude": 40.71427}, "/lccn/sn84024578": {"lang": "eng", "title": "Franklin gazette.", "series": "/lccn/sn84024578", "longitude": -75.16379, "normplace": "Philadelphia, PA", "place": "Philadelphia [Pa.]", "country": "US", "latitude": 39.952329999999996}, "/lccn/sn88064300": {"lang": "eng", "title": "The Patriot of Glenmora.", "series": "/lccn/sn88064300", "longitude": -92.58514, "normplace": "Glenmora, LA", "place": "Glenmora, La.", "country": "US", "latitude": 30.97658}, "/lccn/sn88064301": {"lang": "eng", "title": "The Patriot.", "series": "/lccn/sn88064301", "longitude": -92.58514, "normplace": "Glenmora, LA", "place": "Glenmora, La.", "country": "US", "latitude": 30.97658}, "/lccn/sn93057090": {"lang": "eng", "title": "The Milwaukee press and news.", "series": "/lccn/sn93057090", "longitude": -87.90647, "normplace": "Milwaukee, WI", "place": "Milwaukee [Wis.]", "country": "US", "latitude": 43.0389}, "/lccn/sn88064303": {"lang": "eng", "title": "Franklinton new era.", "series": "/lccn/sn88064303", "longitude": -90.15527, "normplace": "Franklinton, LA", "place": "Franklinton, La.", "country": "US", "latitude": 30.847309999999997}, "/lccn/sn88064304": {"lang": "eng", "title": "The New era.", "series": "/lccn/sn88064304", "longitude": -90.15527, "normplace": "Franklinton, LA", "place": "Franklinton, Washington Parish, La.", "country": "US", "latitude": 30.847309999999997}, "/lccn/sn88064305": {"lang": "eng", "title": "The Era-leader.", "series": "/lccn/sn88064305", "longitude": -90.15527, "normplace": "Franklinton, LA", "place": "Franklinton, La.", "country": "US", "latitude": 30.847309999999997}, "/lccn/sn88064659": {"lang": "eng", "title": "Weekly states.", "series": "/lccn/sn88064659", "longitude": -90.07507, "normplace": "New Orleans, LA", "place": "New Orleans [La.]", "country": "US", "latitude": 29.95465}, "/lccn/sn89050034": {"lang": "eng", "title": "The Weekly register.", "series": "/lccn/sn89050034", "longitude": -88.04305, "normplace": "Mobile, AL", "place": "Mobile, Ala.", "country": "US", "latitude": 30.694359999999996}, "/lccn/sn95060788": {"lang": "eng", "title": "Bisbee daily review.", "series": "/lccn/sn95060788", "longitude": -109.92841000000001, "normplace": "Bisbee, AZ", "place": "Bisbee, Ariz.", "country": "US", "latitude": 31.44815}, "/lccn/sn84024287": {"lang": "eng", "title": "Albany weekly journal.", "series": "/lccn/sn84024287", "longitude": -73.75623, "normplace": "Albany, NY", "place": "Albany [N.Y.]", "country": "US", "latitude": 42.65258}, "/lccn/sn83021532": {"lang": "eng", "title": "The Literary echo, and Pawcatuck advertiser.", "series": "/lccn/sn83021532", "longitude": -71.82729, "normplace": "Westerly, RI", "place": "Westerly, R.I.", "country": "US", "latitude": 41.3776}, "/lccn/sn95060786": {"lang": "eng", "title": "The Review.", "series": "/lccn/sn95060786", "longitude": -109.92841000000001, "normplace": "Bisbee, AZ", "place": "Bisbee, Ariz.", "country": "US", "latitude": 31.44815}, "/lccn/sn95060787": {"lang": "eng", "title": "Bisbee review.", "series": "/lccn/sn95060787", "longitude": -109.92841000000001, "normplace": "Bisbee, AZ", "place": "Bisbee, Ariz.", "country": "US", "latitude": 31.44815}, "europeana/POL/hajnt": {"lang": "None", "title": "Hajnt", "series": "europeana/POL/hajnt", "longitude": "None", "normplace": "\u2014", "place": "[missing]", "country": "EU", "latitude": "None"}, "/lccn/sn84031179": {"lang": "eng", "title": "New-York shipping and commercial list.", "series": "/lccn/sn84031179", "longitude": -74.00596999999999, "normplace": "New York, NY", "place": "New-York [N.Y.]", "country": "US", "latitude": 40.71427}, "/lccn/sn84031174": {"lang": "eng", "title": "General shipping & commercial list.", "series": "/lccn/sn84031174", "longitude": -74.00596999999999, "normplace": "New York, NY", "place": "New-York [N.Y.]", "country": "US", "latitude": 40.71427}, "/lccn/sn86079057": {"lang": "eng", "title": "Richmond weekly Whig.", "series": "/lccn/sn86079057", "longitude": -77.46025999999999, "normplace": "Richmond, VA", "place": "Richmond, Va.", "country": "US", "latitude": 37.55376}, "/lccn/sn86079052": {"lang": "eng", "title": "Weekly Richmond Whig.", "series": "/lccn/sn86079052", "longitude": -77.46025999999999, "normplace": "Richmond, VA", "place": "Richmond [Va.", "country": "US", "latitude": 37.55376}, "/lccn/sn86058216": {"lang": "eng", "title": "The Richmond Democrat.", "series": "/lccn/sn86058216", "longitude": -84.89024, "normplace": "Richmond, IN", "place": "Richmond, Ind.", "country": "US", "latitude": 39.82894}, "/lccn/sn85025610": {"lang": "eng", "title": "The Virginian.", "series": "/lccn/sn85025610", "longitude": -79.14225, "normplace": "Lynchburg, VA", "place": "Lynchburg [Va.]", "country": "US", "latitude": 37.41375}, "/lccn/sn86058215": {"lang": "eng", "title": "The Richmond sun.", "series": "/lccn/sn86058215", "longitude": -84.89024, "normplace": "Richmond, IN", "place": "Richmond, Ind.", "country": "US", "latitude": 39.82894}, "/lccn/sn85025619": {"lang": "eng", "title": "Winona Adler.", "series": "/lccn/sn85025619", "longitude": -91.63932, "normplace": "Winona, MN", "place": "Winona, Minn.", "country": "US", "latitude": 44.04996}, "NRWC": {"lang": "eng", "title": "North Wales Chronicle", "series": "NRWC", "longitude": -5.66895, "normplace": "Bangor", "place": "Bangor", "country": "UK", "latitude": 54.653380000000006}, "/lccn/sn86053295": {"lang": "eng", "title": "The Daily bulletin.", "series": "/lccn/sn86053295", "longitude": -74.00596999999999, "normplace": "New York, NY", "place": "New York [N.Y.]", "country": "US", "latitude": 40.71427}, "/lccn/sn89067494": {"lang": "eng", "title": "Hannibal journal.", "series": "/lccn/sn89067494", "longitude": -91.35848, "normplace": "Hannibal, MO", "place": "Hannibal, Mo.", "country": "US", "latitude": 39.70838}, "/lccn/sn89067495": {"lang": "eng", "title": "Hannibal journal.", "series": "/lccn/sn89067495", "longitude": -91.35848, "normplace": "Hannibal, MO", "place": "Hannibal, Mo.", "country": "US", "latitude": 39.70838}, "/lccn/sn86083437": {"lang": "eng", "title": "Bedford chronicle.", "series": "/lccn/sn86083437", "longitude": -78.50391, "normplace": "Bedford, PA", "place": "Bedford, Pa.", "country": "US", "latitude": 40.01869}, "aps/41885": {"lang": "eng", "title": "The Country Courier (1816-1817)", "series": "aps/41885", "longitude": -74.00596999999999, "normplace": "New York, NY", "place": "New York", "country": "US", "latitude": 40.71427}, "aps/41884": {"lang": "eng", "title": "The Family Lyceum. Design for Instruction and Entertainment, and Adapted to Families, Schools and Lyceums (1832-1833)", "series": "aps/41884", "longitude": -71.05977, "normplace": "Boston, MA", "place": "Boston", "country": "US", "latitude": 42.35843}, "aps/41887": {"lang": "eng", "title": "The Cynick (1811-1811)", "series": "aps/41887", "longitude": -75.16379, "normplace": "Philadelphia, PA", "place": "Philadelphia", "country": "US", "latitude": 39.952329999999996}, "aps/41886": {"lang": "eng", "title": "The Critic (1820-1820)", "series": "aps/41886", "longitude": -75.16379, "normplace": "Philadelphia, PA", "place": "Philadelphia", "country": "US", "latitude": 39.952329999999996}, "aps/41881": {"lang": "eng", "title": "The District School Journal of the State of New York (1840-1852)", "series": "aps/41881", "longitude": -73.75623, "normplace": "Albany, NY", "place": "Albany", "country": "US", "latitude": 42.65258}, "/lccn/sn85026176": {"lang": "eng", "title": "The republic.", "series": "/lccn/sn85026176", "longitude": -77.46025999999999, "normplace": "Richmond, VA", "place": "Richmond, Va.", "country": "US", "latitude": 37.55376}, "aps/41883": {"lang": "eng", "title": "The Euterpeiad; an Album of Music, Poetry & Prose (1830-1831)", "series": "aps/41883", "longitude": -74.00596999999999, "normplace": "New York, NY", "place": "New York", "country": "US", "latitude": 40.71427}, "aps/41882": {"lang": "eng", "title": "Elephant (1848-1848)", "series": "aps/41882", "longitude": -74.00596999999999, "normplace": "New York, NY", "place": "New York", "country": "US", "latitude": 40.71427}, "aps/24761": {"lang": "eng", "title": "The Sabbath School Repository and Teacher's Assistant: Devoted to the Interests of Sabbath Schools (1823-1823)", "series": "aps/24761", "longitude": -72.92815999999999, "normplace": "New Haven, CT", "place": "New Haven", "country": "US", "latitude": 41.30815}, "aps/24760": {"lang": "eng", "title": "St. Tammanys Magazine (1821-1821)", "series": "aps/24760", "longitude": -74.00596999999999, "normplace": "New York, NY", "place": "New York", "country": "US", "latitude": 40.71427}, "/lccn/sn83016555": {"lang": "eng", "title": "New Orleans Republican.", "series": "/lccn/sn83016555", "longitude": -90.07507, "normplace": "New Orleans, LA", "place": "New Orleans, La", "country": "US", "latitude": 29.95465}, "aps/24762": {"lang": "eng", "title": "The Satirist. By Lodowick Lash'em [pseud.] (1812-1812)", "series": "aps/24762", "longitude": -71.05977, "normplace": "Boston, MA", "place": "Boston", "country": "US", "latitude": 42.35843}, "/lccn/sn83016553": {"lang": "eng", "title": "The Orleans gazette, for the country.", "series": "/lccn/sn83016553", "longitude": -90.07507, "normplace": "New Orleans, LA", "place": "New-Orleans [La.", "country": "US", "latitude": 29.95465}, "/lccn/sn83016552": {"lang": "eng", "title": "Orleans gazette, and commercial advertiser.", "series": "/lccn/sn83016552", "longitude": -90.07507, "normplace": "New Orleans, LA", "place": "New Orleans, La.", "country": "US", "latitude": 29.95465}, "aps/24767": {"lang": "eng", "title": "Select Reviews, and Spirit of the Foreign Magazines (1809-1811)", "series": "aps/24767", "longitude": -75.16379, "normplace": "Philadelphia, PA", "place": "Philadelphia", "country": "US", "latitude": 39.952329999999996}, "/lccn/sn83016550": {"lang": "eng", "title": "The New-Orleans times.", "series": "/lccn/sn83016550", "longitude": -90.07507, "normplace": "New Orleans, LA", "place": "New Orleans, La.", "country": "US", "latitude": 29.95465}, "/lccn/sn98069808": {"lang": "eng", "title": "Johnson City comet.", "series": "/lccn/sn98069808", "longitude": -82.35347, "normplace": "Johnson City, TN", "place": "Johnson City, Tenn.", "country": "US", "latitude": 36.31344}, "/lccn/sn96027226": {"lang": "eng", "title": "The daily Democrat.", "series": "/lccn/sn96027226", "longitude": -84.28073, "normplace": "Tallahassee, FL", "place": "Tallahassee, Fla.", "country": "US", "latitude": 30.438259999999996}, "/lccn/sn89066818": {"lang": "eng", "title": "The Cape Girardeau Democrat.", "series": "/lccn/sn89066818", "longitude": -89.51815, "normplace": "Cape Girardeau, MO", "place": "Cape Girardeau, Mo.", "country": "US", "latitude": 37.30588}, "/lccn/sn85034076": {"lang": "eng", "title": "The Andrew County Republican.", "series": "/lccn/sn85034076", "longitude": -94.83025, "normplace": "Savannah, MO", "place": "Savannah, Mo.", "country": "US", "latitude": 39.94166}, "aps/34846": {"lang": "eng", "title": "Amaranth, or Token of Remembrance (1847-1855)", "series": "aps/34846", "longitude": -71.05977, "normplace": "Boston, MA", "place": "Boston [and] New York", "country": "US", "latitude": 42.35843}, "europeana/LVA/kuldigas_balss": {"lang": "None", "title": "Kuld\u012bgas Balss", "series": "europeana/LVA/kuldigas_balss", "longitude": "None", "normplace": "\u2014", "place": "[missing]", "country": "EU", "latitude": "None"}, "/lccn/sn89059333": {"lang": "eng", "title": "Jennings reporter.", "series": "/lccn/sn89059333", "longitude": -92.65708000000001, "normplace": "Jennings, LA", "place": "Jennings, La.", "country": "US", "latitude": 30.22243}, "/lccn/sn89059334": {"lang": "eng", "title": "Jennings times.", "series": "/lccn/sn89059334", "longitude": -92.65708000000001, "normplace": "Jennings, LA", "place": "Jennings, La.", "country": "US", "latitude": 30.22243}, "/lccn/sn89059335": {"lang": "eng", "title": "The daily times.", "series": "/lccn/sn89059335", "longitude": -92.65708000000001, "normplace": "Jennings, LA", "place": "Jennings, La.", "country": "US", "latitude": 30.22243}, "/lccn/sn89059336": {"lang": "eng", "title": "Daily times-record.", "series": "/lccn/sn89059336", "longitude": -92.65708000000001, "normplace": "Jennings, LA", "place": "Jennings, La.", "country": "US", "latitude": 30.22243}, "/lccn/sn89059337": {"lang": "eng", "title": "Jennings semi-weekly news.", "series": "/lccn/sn89059337", "longitude": -92.65708000000001, "normplace": "Jennings, LA", "place": "Jennings, La.", "country": "US", "latitude": 30.22243}, "/lccn/sn89059338": {"lang": "eng", "title": "The Jennings news.", "series": "/lccn/sn89059338", "longitude": -92.65708000000001, "normplace": "Jennings, LA", "place": "Jennings, La.", "country": "US", "latitude": 30.22243}, "/lccn/sn89059339": {"lang": "eng", "title": "The Natchez courier.", "series": "/lccn/sn89059339", "longitude": -91.40316999999999, "normplace": "Natchez, MS", "place": "Natchez, Miss.", "country": "US", "latitude": 31.560440000000003}, "/lccn/sn93066085": {"lang": "eng", "title": "The South and West.", "series": "/lccn/sn93066085", "longitude": -100.51987, "normplace": "Beaver, OK", "place": "Beaver, Okla.", "country": "US", "latitude": 36.816140000000004}, "/lccn/sn93066084": {"lang": "eng", "title": "Lakemp mirror.", "series": "/lccn/sn93066084", "longitude": -100.54, "normplace": "La Kemp, OK", "place": "Lakemp, Beaver County, Okla.", "country": "US", "latitude": 36.55}, "/lccn/sn86063730": {"lang": "eng", "title": "Brownsville herald.", "series": "/lccn/sn86063730", "longitude": -97.49748000000001, "normplace": "Brownsville, TX", "place": "Brownsville, Tex.", "country": "US", "latitude": 25.90175}, "/lccn/sn93066081": {"lang": "eng", "title": "Gate valley star.", "series": "/lccn/sn93066081", "longitude": -100.05541, "normplace": "Gate, OK", "place": "Gate, Beaver County, Okla.", "country": "US", "latitude": 36.853359999999995}, "/lccn/sn93066080": {"lang": "eng", "title": "The Farmers news.", "series": "/lccn/sn93066080", "longitude": -100.19346999999999, "normplace": "Knowles, OK", "place": "Knowles, Beaver County, Okla.", "country": "US", "latitude": 36.87336}, "/lccn/sn93066083": {"lang": "eng", "title": "The Ivanhoe news.", "series": "/lccn/sn93066083", "longitude": 100.5, "normplace": "Ivanhoe, OK", "place": "Ivanhoe, Beaver Co., Okla.", "country": "US", "latitude": 36.8}, "/lccn/sn93066082": {"lang": "eng", "title": "The Ivanhoe independent.", "series": "/lccn/sn93066082", "longitude": 100.5, "normplace": "Ivanhoe, OK", "place": "Ivanhoe, Beaver County, Okla.", "country": "US", "latitude": 36.8}, "/lccn/sn82014392": {"lang": "eng", "title": "Daily republican.", "series": "/lccn/sn82014392", "longitude": -81.09983000000001, "normplace": "Savannah, GA", "place": "Savannah, Ga.", "country": "US", "latitude": 32.08354}, "/lccn/sn82014393": {"lang": "eng", "title": "Delaware patriot & American watchman.", "series": "/lccn/sn82014393", "longitude": -75.54659000000001, "normplace": "Wilmington, DE", "place": "Wilmington, Del.", "country": "US", "latitude": 39.74595}, "/lccn/sn82014390": {"lang": "eng", "title": "Savannah daily loyal Georgian.", "series": "/lccn/sn82014390", "longitude": -81.09983000000001, "normplace": "Savannah, GA", "place": "Savannah, Ga.", "country": "US", "latitude": 32.08354}, "/lccn/sn88078391": {"lang": "eng", "title": "Farmer and Democrat.", "series": "/lccn/sn88078391", "longitude": -81.91792, "normplace": "Millersburg, OH", "place": "Millersburg, Ohio", "country": "US", "latitude": 40.55451}, "/lccn/sn82014394": {"lang": "eng", "title": "Georgia republican.", "series": "/lccn/sn82014394", "longitude": -81.09983000000001, "normplace": "Savannah, GA", "place": "Savannah, Ga.", "country": "US", "latitude": 32.08354}, "/lccn/sn82014395": {"lang": "eng", "title": "Georgia republican & state intelligencer.", "series": "/lccn/sn82014395", "longitude": -81.09983000000001, "normplace": "Savannah, GA", "place": "Savannah, Ga.", "country": "US", "latitude": 32.08354}, "/lccn/sn84020502": {"lang": "eng", "title": "New-Hampshire observer.", "series": "/lccn/sn84020502", "longitude": -70.76255, "normplace": "Portsmouth, NH", "place": "Portsmouth, N.H.", "country": "US", "latitude": 43.07176}, "/lccn/sn84020052": {"lang": "eng", "title": "Weekly western journal of commerce.", "series": "/lccn/sn84020052", "longitude": -94.57857, "normplace": "Kansas City, MO", "place": "City of Kansas [Kansas City, Mo.]", "country": "US", "latitude": 39.09973}, "/lccn/sn84020053": {"lang": "eng", "title": "Western journal of commerce.", "series": "/lccn/sn84020053", "longitude": -94.57857, "normplace": "Kansas City, MO", "place": "Kansas City, Mo.", "country": "US", "latitude": 39.09973}, "/lccn/sn84020054": {"lang": "eng", "title": "Journal of commerce.", "series": "/lccn/sn84020054", "longitude": -94.57857, "normplace": "Kansas City, MO", "place": "Kansas City, Mo.", "country": "US", "latitude": 39.09973}, "/lccn/sn97063425": {"lang": "eng", "title": "Cheboygan tribune.", "series": "/lccn/sn97063425", "longitude": -84.47448, "normplace": "Cheboygan, MI", "place": "Cheboygan, Mich.", "country": "US", "latitude": 45.64696}, "/lccn/sn84020056": {"lang": "eng", "title": "Kansas City daily western journal of commerce.", "series": "/lccn/sn84020056", "longitude": -94.57857, "normplace": "Kansas City, MO", "place": "City of Kansas [Kansas City, Mo.]", "country": "US", "latitude": 39.09973}, "/lccn/sn84020057": {"lang": "eng", "title": "Daily Kansas City journal of commerce.", "series": "/lccn/sn84020057", "longitude": -94.57857, "normplace": "Kansas City, MO", "place": "City of Kansas [Kansas City, Mo.]", "country": "US", "latitude": 39.09973}, "/lccn/sn87052265": {"lang": "deu", "title": "Germania.", "series": "/lccn/sn87052265", "longitude": -87.90647, "normplace": "Milwaukee, WI", "place": "Milwaukee, Wis.", "country": "US", "latitude": 43.0389}, "/lccn/sn83020423": {"lang": "eng", "title": "The Blakeley sun, and Alabama advertiser.", "series": "/lccn/sn83020423", "longitude": -87.92416, "normplace": "Blakeley, AL", "place": "Blakeley, A.T. [Alabama Territory]", "country": "US", "latitude": 30.74213}, "/lccn/sn87052267": {"lang": "eng", "title": "Milwaukee weekly sentinel & gazette.", "series": "/lccn/sn87052267", "longitude": -87.90647, "normplace": "Milwaukee, WI", "place": "Milwaukee, Wis.", "country": "US", "latitude": 43.0389}, "/lccn/sn88065102": {"lang": "eng", "title": "Lyford's Baltimore price current.", "series": "/lccn/sn88065102", "longitude": -76.61219, "normplace": "Baltimore, MD", "place": "Baltimore [Md.]", "country": "US", "latitude": 39.29038}, "/lccn/sn87052261": {"lang": "eng", "title": "The daily commercial times.", "series": "/lccn/sn87052261", "longitude": -87.90647, "normplace": "Milwaukee, WI", "place": "Milwaukee, Wis.", "country": "US", "latitude": 43.0389}, "/lccn/sn94050560": {"lang": "eng", "title": "The Weekly gem.", "series": "/lccn/sn94050560", "longitude": -111.65127, "normplace": "Flagstaff, AZ", "place": "Flagstaff, Ariz.", "country": "US", "latitude": 35.19807}, "/lccn/sn94050561": {"lang": "eng", "title": "The Flagstaff gem.", "series": "/lccn/sn94050561", "longitude": -111.65127, "normplace": "Flagstaff, AZ", "place": "Flagstaff, Ariz.", "country": "US", "latitude": 35.19807}, "/lccn/sn94050562": {"lang": "eng", "title": "Coconino County democrat and the Flagstaff gem.", "series": "/lccn/sn94050562", "longitude": -111.65127, "normplace": "Flagstaff, AZ", "place": "Flagstaff, Coconino County, Ariz.", "country": "US", "latitude": 35.19807}, "/lccn/sn87052269": {"lang": "eng", "title": "American freeman.", "series": "/lccn/sn87052269", "longitude": -87.90647, "normplace": "Milwaukee, WI", "place": "Milwaukie [i.e. Milwaukee], Wis.", "country": "US", "latitude": 43.0389}, "/lccn/sn87052268": {"lang": "eng", "title": "Milwaukee daily free Democrat.", "series": "/lccn/sn87052268", "longitude": -87.90647, "normplace": "Milwaukee, WI", "place": "Milwaukee, Wis.", "country": "US", "latitude": 43.0389}, "/lccn/sn87093044": {"lang": "eng", "title": "The Kennewick courier-reporter.", "series": "/lccn/sn87093044", "longitude": -119.13723, "normplace": "Kennewick, WA", "place": "Kennewick, Wash.", "country": "US", "latitude": 46.21125}, "/lccn/sn87093045": {"lang": "eng", "title": "Courier-herald.", "series": "/lccn/sn87093045", "longitude": -119.13723, "normplace": "Kennewick, WA", "place": "Kennewick, Wash.", "country": "US", "latitude": 46.21125}, "/lccn/sn87093042": {"lang": "eng", "title": "The Kennewick courier-reporter.", "series": "/lccn/sn87093042", "longitude": -119.13723, "normplace": "Kennewick, WA", "place": "Kennewick, Wash.", "country": "US", "latitude": 46.21125}, "/lccn/sn95079600": {"lang": "eng", "title": "Christian observer and free Christian commonwealth.", "series": "/lccn/sn95079600", "longitude": -77.46025999999999, "normplace": "Richmond, VA", "place": "Richmond, Va. ;", "country": "US", "latitude": 37.55376}, "/lccn/sn95079605": {"lang": "eng", "title": "Daily national intelligencer and Washington express.", "series": "/lccn/sn95079605", "longitude": -77.03636999999999, "normplace": "Washington, DC", "place": "Washington [D.C.]", "country": "US", "latitude": 38.895109999999995}, "/lccn/sn86092124": {"lang": "eng", "title": "American union.", "series": "/lccn/sn86092124", "longitude": -79.9559, "normplace": "Morgantown, WV", "place": "Morgantown, Va. [W. Va.]", "country": "US", "latitude": 39.629529999999995}, "trove/798": {"lang": "eng", "title": "Sporting Judge (Melbourne, Vic. : 1914 - 1918)", "series": "trove/798", "longitude": 144.96331999999998, "normplace": "Melbourne, VIC", "place": "None", "country": "AU", "latitude": -37.814}, "/lccn/sn97065219": {"lang": "eng", "title": "Chattanooga free press.", "series": "/lccn/sn97065219", "longitude": -85.30968, "normplace": "Chattanooga, TN", "place": "Chattanooga, Tenn.", "country": "US", "latitude": 35.045629999999996}, "/lccn/sn84021908": {"lang": "eng", "title": "Arizona democrat.", "series": "/lccn/sn84021908", "longitude": -112.4685, "normplace": "Prescott, AZ", "place": "Prescott, Ariz", "country": "US", "latitude": 34.54002}, "/lccn/sn84021904": {"lang": "eng", "title": "The Alaska news.", "series": "/lccn/sn84021904", "longitude": -134.41971999999998, "normplace": "Juneau, AK", "place": "Juneau City, Alaska", "country": "US", "latitude": 58.30194}, "/lccn/sn84021903": {"lang": "eng", "title": "Alabama state intelligencer.", "series": "/lccn/sn84021903", "longitude": -87.56917, "normplace": "Tuscaloosa, AL", "place": "Tuscaloosa, Ala.", "country": "US", "latitude": 33.20984}, "/lccn/sn84021902": {"lang": "eng", "title": "Alabama republican.", "series": "/lccn/sn84021902", "longitude": -86.5861, "normplace": "Huntsville, AL", "place": "Huntsville, Ala.", "country": "US", "latitude": 34.73037}, "/lccn/sn87060224": {"lang": "eng", "title": "The courier-journal.", "series": "/lccn/sn87060224", "longitude": -85.75941, "normplace": "Louisville, KY", "place": "Louisville, Ky.", "country": "US", "latitude": 38.25424}, "/lccn/sn82014175": {"lang": "eng", "title": "The times.", "series": "/lccn/sn82014175", "longitude": -72.68509, "normplace": "Hartford, CT", "place": "Hartford, Conn.", "country": "US", "latitude": 41.763709999999996}, "/lccn/sn82014172": {"lang": "eng", "title": "The Reformer.", "series": "/lccn/sn82014172", "longitude": -77.03636999999999, "normplace": "Washington, DC", "place": "Washington City [D.C.]", "country": "US", "latitude": 38.895109999999995}, "trove/95": {"lang": "eng", "title": "The Sydney Monitor (NSW : 1828 - 1838)", "series": "trove/95", "longitude": 151.20731999999998, "normplace": "Sydney, NSW", "place": "None", "country": "AU", "latitude": -33.86785}, "/lccn/sn84009669": {"lang": "eng", "title": "The Leesville leader.", "series": "/lccn/sn84009669", "longitude": -93.26100000000001, "normplace": "Leesville, LA", "place": "Leesville, Vernon Parish, La.", "country": "US", "latitude": 31.143520000000002}, "trove/799": {"lang": "eng", "title": "Vigilante (Melbourne, Vic. : 1918)", "series": "trove/799", "longitude": 144.96331999999998, "normplace": "Melbourne, VIC", "place": "None", "country": "AU", "latitude": -37.814}, "/lccn/sn91068368": {"lang": "eng", "title": "The Wilmington messenger.", "series": "/lccn/sn91068368", "longitude": -77.94471, "normplace": "Wilmington, NC", "place": "Wilmington, N.C.", "country": "US", "latitude": 34.22573}, "/lccn/sn88056044": {"lang": "eng", "title": "Wallace press-times.", "series": "/lccn/sn88056044", "longitude": -115.92793999999999, "normplace": "Wallace, ID", "place": "Wallace, Idaho", "country": "US", "latitude": 47.474090000000004}, "aps/35261": {"lang": "eng", "title": "The Literary World (1847-1853)", "series": "aps/35261", "longitude": -74.00596999999999, "normplace": "New York, NY", "place": "New York", "country": "US", "latitude": 40.71427}, "/lccn/sn91068366": {"lang": "eng", "title": "The weekly messenger.", "series": "/lccn/sn91068366", "longitude": -77.94471, "normplace": "Wilmington, NC", "place": "Wilmington, N.C.", "country": "US", "latitude": 34.22573}, "/lccn/sn91068367": {"lang": "eng", "title": "The semi-weekly messenger.", "series": "/lccn/sn91068367", "longitude": -77.94471, "normplace": "Wilmington, NC", "place": "Wilmington, N.C.", "country": "US", "latitude": 34.22573}, "/lccn/sn85042631": {"lang": "eng", "title": "The Woonsocket call and evening reporter.", "series": "/lccn/sn85042631", "longitude": -71.51478, "normplace": "Woonsocket, RI", "place": "Woonsocket, R.I.", "country": "US", "latitude": 42.00288}, "/lccn/sn85032689": {"lang": "eng", "title": "Kansas farm journal.", "series": "/lccn/sn85032689", "longitude": -97.61142, "normplace": "Salina, KS", "place": "Salina, Kan.", "country": "US", "latitude": 38.84028}, "/lccn/sn85032688": {"lang": "eng", "title": "The Salina semi-weekly journal.", "series": "/lccn/sn85032688", "longitude": -97.61142, "normplace": "Salina, KS", "place": "Salina, Kan.", "country": "US", "latitude": 38.84028}, "/lccn/sn85032682": {"lang": "eng", "title": "The Salina daily union.", "series": "/lccn/sn85032682", "longitude": -97.61142, "normplace": "Salina, KS", "place": "Salina, Kan.", "country": "US", "latitude": 38.84028}, "/lccn/sn85032681": {"lang": "eng", "title": "The Salina union.", "series": "/lccn/sn85032681", "longitude": -97.61142, "normplace": "Salina, KS", "place": "Salina, Kan.", "country": "US", "latitude": 38.84028}, "/lccn/sn85032680": {"lang": "eng", "title": "The National field.", "series": "/lccn/sn85032680", "longitude": -97.61142, "normplace": "Salina, KS", "place": "Salina, Kan.", "country": "US", "latitude": 38.84028}, "/lccn/sn85032687": {"lang": "eng", "title": "The Semi-weekly Salina republican-journal.", "series": "/lccn/sn85032687", "longitude": -97.61142, "normplace": "Salina, KS", "place": "Salina, Kan.", "country": "US", "latitude": 38.84028}, "/lccn/sn85032686": {"lang": "eng", "title": "The Salina daily journal.", "series": "/lccn/sn85032686", "longitude": -97.61142, "normplace": "Salina, KS", "place": "Salina, Kan.", "country": "US", "latitude": 38.84028}, "/lccn/sn85032685": {"lang": "eng", "title": "Salina weekly republican-journal.", "series": "/lccn/sn85032685", "longitude": -97.61142, "normplace": "Salina, KS", "place": "Salina, Kan.", "country": "US", "latitude": 38.84028}, "/lccn/sn85032684": {"lang": "eng", "title": "The republican-journal.", "series": "/lccn/sn85032684", "longitude": -97.61142, "normplace": "Salina, KS", "place": "Salina, Kan.", "country": "US", "latitude": 38.84028}, "/lccn/sn84037009": {"lang": "eng", "title": "The times.", "series": "/lccn/sn84037009", "longitude": -87.65005, "normplace": "Chicago, IL", "place": "Chicago, Ill.", "country": "US", "latitude": 41.85003}, "trove/849": {"lang": "eng", "title": "Brighton Southern Cross (Vic. : 1896 - 1918)", "series": "trove/849", "longitude": 145.00279, "normplace": "Brighton, VIC", "place": "None", "country": "AU", "latitude": -37.905609999999996}, "/lccn/sn85030828": {"lang": "eng", "title": "The Sherman County record.", "series": "/lccn/sn85030828", "longitude": -101.71016999999999, "normplace": "Goodland, KS", "place": "Goodland, Kan.", "country": "US", "latitude": 39.35083}, "/lccn/sn85030825": {"lang": "eng", "title": "The Goodland republic.", "series": "/lccn/sn85030825", "longitude": -101.71016999999999, "normplace": "Goodland, KS", "place": "Goodland, Kan.", "country": "US", "latitude": 39.35083}, "/lccn/sn85030824": {"lang": "eng", "title": "The Goodland news and the Goodland republic.", "series": "/lccn/sn85030824", "longitude": -101.71016999999999, "normplace": "Goodland, KS", "place": "Goodland, Kan.", "country": "US", "latitude": 39.35083}, "/lccn/sn85030827": {"lang": "eng", "title": "The Goodland daily news.", "series": "/lccn/sn85030827", "longitude": -101.71016999999999, "normplace": "Goodland, KS", "place": "Goodland, Kan.", "country": "US", "latitude": 39.35083}, "/lccn/sn85030826": {"lang": "eng", "title": "The Goodland news-republic.", "series": "/lccn/sn85030826", "longitude": -101.71016999999999, "normplace": "Goodland, KS", "place": "Goodland, Kan.", "country": "US", "latitude": 39.35083}, "/lccn/sn85030821": {"lang": "eng", "title": "The Goodland republic.", "series": "/lccn/sn85030821", "longitude": -101.71016999999999, "normplace": "Goodland, KS", "place": "Goodland, Kan.", "country": "US", "latitude": 39.35083}, "/lccn/sn85030820": {"lang": "eng", "title": "Sherman County republican.", "series": "/lccn/sn85030820", "longitude": -101.674722, "normplace": "Itasca, KS", "place": "Itasca, Kan.", "country": "US", "latitude": 39.325833}, "/lccn/sn85030823": {"lang": "eng", "title": "Sherman County record and Goodland republic.", "series": "/lccn/sn85030823", "longitude": -101.71016999999999, "normplace": "Goodland, KS", "place": "Goodland, Kan.", "country": "US", "latitude": 39.35083}, "/lccn/sn85030822": {"lang": "eng", "title": "The Goodland record.", "series": "/lccn/sn85030822", "longitude": -101.71016999999999, "normplace": "Goodland, KS", "place": "Goodland, Kan.", "country": "US", "latitude": 39.35083}, "aps/24885": {"lang": "eng", "title": "New Jersey Medical Reporter (1855-1855)", "series": "aps/24885", "longitude": -74.86489, "normplace": "Burlington, NJ", "place": "Burlington, N.J. [and] Philadelphia", "country": "US", "latitude": 40.071220000000004}, "aps/24886": {"lang": "eng", "title": "Medical and Surgical Reporter (1856-1858)", "series": "aps/24886", "longitude": -74.86489, "normplace": "Burlington, NJ", "place": "Burlington, N.J. [and] Philadelphia", "country": "US", "latitude": 40.071220000000004}, "/lccn/sn94059426": {"lang": "eng", "title": "Petersburg index-appeal.", "series": "/lccn/sn94059426", "longitude": -78.05333, "normplace": "Petersburg, VA", "place": "Petersburg, Va.", "country": "US", "latitude": 38.909279999999995}, "/lccn/sn85054545": {"lang": "eng", "title": "The New-York evangelist.", "series": "/lccn/sn85054545", "longitude": -74.00596999999999, "normplace": "New York, NY", "place": "New-York [N.Y.]", "country": "US", "latitude": 40.71427}, "/lccn/sn94059422": {"lang": "eng", "title": "The Daily progress.", "series": "/lccn/sn94059422", "longitude": -78.05333, "normplace": "Petersburg, VA", "place": "Petersburg, Va.", "country": "US", "latitude": 38.909279999999995}, "/lccn/sn85054542": {"lang": "eng", "title": "The Pittsburgh daily commercial.", "series": "/lccn/sn85054542", "longitude": -79.99589, "normplace": "Pittsburgh, PA", "place": "Pittsburgh [Pa.]", "country": "US", "latitude": 40.44062}, "/lccn/sn85054018": {"lang": "eng", "title": "Detroit daily free press.", "series": "/lccn/sn85054018", "longitude": -83.04575, "normplace": "Detroit, MI", "place": "Detroit [Mich.]", "country": "US", "latitude": 42.33143}, "/lccn/sn85054548": {"lang": "eng", "title": "The Pittsburg times.", "series": "/lccn/sn85054548", "longitude": -79.99589, "normplace": "Pittsburgh, PA", "place": "Pittsburg, Pa.", "country": "US", "latitude": 40.44062}, "/lccn/sn85054549": {"lang": "eng", "title": "Pittsburgh Mercury and Allegheny republican.", "series": "/lccn/sn85054549", "longitude": -79.99589, "normplace": "Pittsburgh, PA", "place": "[Pittsburgh, Pa.]", "country": "US", "latitude": 40.44062}, "/lccn/sn92068478": {"lang": "eng", "title": "El Centro daily standard.", "series": "/lccn/sn92068478", "longitude": -115.56305, "normplace": "El Centro, CA", "place": "El Centro, Calif.", "country": "US", "latitude": 32.792}, "trove/841": {"lang": "eng", "title": "Quiz (Adelaide, SA : 1900 - 1909)", "series": "trove/841", "longitude": 138.59863, "normplace": "Adelaide, SA", "place": "None", "country": "AU", "latitude": -34.92866}, "/lccn/sn85050917": {"lang": "eng", "title": "The Iowa central journal.", "series": "/lccn/sn85050917", "longitude": -92.98853000000001, "normplace": "Albion, IA", "place": "Lafayette [Albion] Iowa", "country": "US", "latitude": 42.11249}, "kfz": {"lang": "deu", "title": "Klagenfurter Zeitung", "series": "kfz", "longitude": 14.305279999999998, "normplace": "Klagenfurt am W\u00f6rthersee (AT)", "place": "Klagenfurt am W\u00f6rthersee (AT)", "country": "EU", "latitude": 46.62472}, "/lccn/sn83030215": {"lang": "eng", "title": "The New York herald, New York tribune.", "series": "/lccn/sn83030215", "longitude": -74.00596999999999, "normplace": "New York, NY", "place": "New York [N.Y.]", "country": "US", "latitude": 40.71427}, "/lccn/sn83035333": {"lang": "eng", "title": "Cleveland plain dealer.", "series": "/lccn/sn83035333", "longitude": -81.69541, "normplace": "Cleveland, OH", "place": "Cleveland, Ohio", "country": "US", "latitude": 41.4995}, "/lccn/sn83030216": {"lang": "eng", "title": "New York herald tribune.", "series": "/lccn/sn83030216", "longitude": -74.00596999999999, "normplace": "New York, NY", "place": "New York [N.Y.]", "country": "US", "latitude": 40.71427}, "/lccn/sn86054053": {"lang": "deu", "title": "Hermanner Volksblatt.", "series": "/lccn/sn86054053", "longitude": -91.43738, "normplace": "Hermann, MO", "place": "Hermann, Mo.", "country": "US", "latitude": 38.704209999999996}, "/lccn/sn90060749": {"lang": "eng", "title": "East Grand Forks courier.", "series": "/lccn/sn90060749", "longitude": -97.02452, "normplace": "East Grand Forks, MN", "place": "East Grand Forks, Minn.", "country": "US", "latitude": 47.92998}, "trove/845": {"lang": "eng", "title": "The Norseman Pioneer (WA : 1896 - 1897)", "series": "trove/845", "longitude": 121.77873000000001, "normplace": "Norseman, WA", "place": "None", "country": "AU", "latitude": -32.19769}, "/lccn/sn87057235": {"lang": "eng", "title": "Daily constitution-Democrat.", "series": "/lccn/sn87057235", "longitude": -91.38486999999999, "normplace": "Keokuk, IA", "place": "Keokuk, Iowa", "country": "US", "latitude": 40.39727}, "/lccn/sn87057234": {"lang": "eng", "title": "The Constitution-Democrat.", "series": "/lccn/sn87057234", "longitude": -91.38486999999999, "normplace": "Keokuk, IA", "place": "Keokuk, Iowa", "country": "US", "latitude": 40.39727}, "/lccn/sn86071865": {"lang": "eng", "title": "Richmond Whig & commercial journal.", "series": "/lccn/sn86071865", "longitude": -77.46025999999999, "normplace": "Richmond, VA", "place": "Richmond, Va.", "country": "US", "latitude": 37.55376}, "/lccn/sn86071864": {"lang": "eng", "title": "Lancaster examiner.", "series": "/lccn/sn86071864", "longitude": -76.30551, "normplace": "Lancaster, PA", "place": "Lancaster, Pa.", "country": "US", "latitude": 40.03788}, "/lccn/sn86071867": {"lang": "eng", "title": "Richmond Whig.", "series": "/lccn/sn86071867", "longitude": -77.46025999999999, "normplace": "Richmond, VA", "place": "Richmond, Va.", "country": "US", "latitude": 37.55376}, "/lccn/sn86071866": {"lang": "eng", "title": "Daily Richmond Whig.", "series": "/lccn/sn86071866", "longitude": -77.46025999999999, "normplace": "Richmond, VA", "place": "Richmond, Va.", "country": "US", "latitude": 37.55376}, "/lccn/sn86071861": {"lang": "eng", "title": "Anti-Masonic herald, and Lancaster weekly courier.", "series": "/lccn/sn86071861", "longitude": -76.30551, "normplace": "Lancaster, PA", "place": "Lancaster, Pa.", "country": "US", "latitude": 40.03788}, "/lccn/sn88086108": {"lang": "eng", "title": "The Prohibitionist.", "series": "/lccn/sn88086108", "longitude": -87.90647, "normplace": "Milwaukee, WI", "place": "Milwaukee, Wis.", "country": "US", "latitude": 43.0389}, "/lccn/2001210207": {"lang": "eng", "title": "Littell's living age", "series": "/lccn/2001210207", "longitude": -71.05977, "normplace": "Boston, MA", "place": "Boston, Mass.", "country": "US", "latitude": 42.35843}, "/lccn/sn86071868": {"lang": "eng", "title": "The Roanoke times.", "series": "/lccn/sn86071868", "longitude": -79.94143000000001, "normplace": "Roanoke, VA", "place": "Roanoke, Va.", "country": "US", "latitude": 37.27097}, "trove/792": {"lang": "eng", "title": "Advocate (Melbourne, Vic. : 1868 - 1954)", "series": "trove/792", "longitude": 144.96331999999998, "normplace": "Melbourne, VIC", "place": "None", "country": "AU", "latitude": -37.814}, "/lccn/sn97070614": {"lang": "eng", "title": "The Owosso times.", "series": "/lccn/sn97070614", "longitude": -84.17664, "normplace": "Owosso, MI", "place": "Owosso, Mich.", "country": "US", "latitude": 42.9978}, "/lccn/sn84029672": {"lang": "eng", "title": "The Lewis press.", "series": "/lccn/sn84029672", "longitude": -99.25261, "normplace": "Lewis, KS", "place": "Lewis, Kan.", "country": "US", "latitude": 37.93613}, "/lccn/sn92002484": {"lang": "eng", "title": "Moscow Pullman daily news.", "series": "/lccn/sn92002484", "longitude": -117.00017, "normplace": "Moscow, ID", "place": "Moscow, Idaho", "country": "US", "latitude": 46.73239}, "/lccn/sn84029670": {"lang": "eng", "title": "The Kinsley mercury.", "series": "/lccn/sn84029670", "longitude": -99.40984, "normplace": "Kinsley, KS", "place": "Kinsley, Kan.", "country": "US", "latitude": 37.92307}, "/lccn/sn84029676": {"lang": "eng", "title": "Kinsley graphic.", "series": "/lccn/sn84029676", "longitude": -99.40984, "normplace": "Kinsley, KS", "place": "Kinsley, Kan.", "country": "US", "latitude": 37.92307}, "/lccn/sn84026546": {"lang": "eng", "title": "Newbern progress.", "series": "/lccn/sn84026546", "longitude": -77.04411, "normplace": "New Bern, NC", "place": "Newbern, N.C.", "country": "US", "latitude": 35.10849}, "/lccn/sn84026547": {"lang": "eng", "title": "Newbern weekly progress.", "series": "/lccn/sn84026547", "longitude": -77.04411, "normplace": "New Bern, NC", "place": "Newbern, N.C.", "country": "US", "latitude": 35.10849}, "trove/793": {"lang": "eng", "title": "Tribune  (Melbourne, Vic. : 1914 - 1918)", "series": "trove/793", "longitude": 144.96331999999998, "normplace": "Melbourne, VIC", "place": "None", "country": "AU", "latitude": -37.814}, "/lccn/sn96077403": {"lang": "eng", "title": "The courier leader.", "series": "/lccn/sn96077403", "longitude": -85.89112, "normplace": "Paw Paw, MI", "place": "Paw Paw, Mich.", "country": "US", "latitude": 42.21782}, "europeana/LVA/speks": {"lang": "None", "title": "Sp\u0113ks", "series": "europeana/LVA/speks", "longitude": "None", "normplace": "\u2014", "place": "[missing]", "country": "EU", "latitude": "None"}, "/lccn/sn85055104": {"lang": "eng", "title": "The American flag.", "series": "/lccn/sn85055104", "longitude": -76.98692, "normplace": "New Berlin, PA", "place": "New Berlin, Pa.", "country": "US", "latitude": 40.87897}, "/lccn/sn96077400": {"lang": "eng", "title": "Free press and courier.", "series": "/lccn/sn96077400", "longitude": -85.89112, "normplace": "Paw Paw, MI", "place": "Paw Paw, Mich.", "country": "US", "latitude": 42.21782}, "/lccn/sn96077401": {"lang": "eng", "title": "Paw Paw free press and courier.", "series": "/lccn/sn96077401", "longitude": -85.89112, "normplace": "Paw Paw, MI", "place": "Paw Paw, Mich.", "country": "US", "latitude": 42.21782}, "/lccn/2012218613": {"lang": "eng", "title": "The Fairfield news and herald.", "series": "/lccn/2012218613", "longitude": -81.08648000000001, "normplace": "Winnsboro, SC", "place": "Winnsboro, S.C.", "country": "US", "latitude": 34.3807}, "/lccn/sn82015426": {"lang": "eng", "title": "The Atlanta journal.", "series": "/lccn/sn82015426", "longitude": -84.38798, "normplace": "Atlanta, GA", "place": "Atlanta, Ga.", "country": "US", "latitude": 33.749}, "/lccn/sn85033151": {"lang": "eng", "title": "St. Johnsbury tri-weekly Caledonian.", "series": "/lccn/sn85033151", "longitude": -72.01509, "normplace": "Saint Johnsbury, VT", "place": "St. Johnsbury [Vt.]", "country": "US", "latitude": 44.41922}, "/lccn/sn88079421": {"lang": "eng", "title": "Massachusetts life boat.", "series": "/lccn/sn88079421", "longitude": -71.05977, "normplace": "Boston, MA", "place": "Boston [Mass.]", "country": "US", "latitude": 42.35843}, "/lccn/sn83040028": {"lang": "eng", "title": "The Anderson County democrat.", "series": "/lccn/sn83040028", "longitude": -95.24192, "normplace": "Garnett, KS", "place": "Garnett, Kan.", "country": "US", "latitude": 38.28058}, "/lccn/sn83040029": {"lang": "eng", "title": "The Colony free press.", "series": "/lccn/sn83040029", "longitude": -95.36554, "normplace": "Colony, KS", "place": "Colony, Kan.", "country": "US", "latitude": 38.070859999999996}, "/lccn/sn83045052": {"lang": "eng", "title": "Columbia telescope.", "series": "/lccn/sn83045052", "longitude": -81.03481, "normplace": "Columbia, SC", "place": "Columbia, S.C.", "country": "US", "latitude": 34.00071}, "/lccn/sn83045051": {"lang": "eng", "title": "The Butte bulletin.", "series": "/lccn/sn83045051", "longitude": -112.53473999999999, "normplace": "Butte, MT", "place": "Butte, Mont.", "country": "US", "latitude": 46.003820000000005}, "/lccn/sn83040020": {"lang": "eng", "title": "The Garnett plaindealer.", "series": "/lccn/sn83040020", "longitude": -95.24192, "normplace": "Garnett, KS", "place": "Garnett, Kan.", "country": "US", "latitude": 38.28058}, "/lccn/sn83040021": {"lang": "eng", "title": "Republican plaindealer.", "series": "/lccn/sn83040021", "longitude": -95.24192, "normplace": "Garnett, KS", "place": "Garnett, Kan.", "country": "US", "latitude": 38.28058}, "/lccn/sn83045502": {"lang": "eng", "title": "The Hartford times.", "series": "/lccn/sn83045502", "longitude": -72.68509, "normplace": "Hartford, CT", "place": "Hartford, Conn.", "country": "US", "latitude": 41.763709999999996}, "/lccn/sn83040023": {"lang": "eng", "title": "The Garnett plaindealer and Anderson County republican.", "series": "/lccn/sn83040023", "longitude": -95.24192, "normplace": "Garnett, KS", "place": "Garnett, Kan.", "country": "US", "latitude": 38.28058}, "/lccn/sn83040024": {"lang": "eng", "title": "Garnett eagle-plaindealer.", "series": "/lccn/sn83040024", "longitude": -95.24192, "normplace": "Garnett, KS", "place": "Garnett, Kan.", "country": "US", "latitude": 38.28058}, "/lccn/sn83040025": {"lang": "eng", "title": "Garnett journal-plaindealer.", "series": "/lccn/sn83040025", "longitude": -95.24192, "normplace": "Garnett, KS", "place": "Garnett, Kan.", "country": "US", "latitude": 38.28058}, "/lccn/sn83040026": {"lang": "eng", "title": "Westphalia independent.", "series": "/lccn/sn83040026", "longitude": -95.49025999999999, "normplace": "Westphalia, KS", "place": "Westphalia, Kan.", "country": "US", "latitude": 38.18197}, "/lccn/sn83040027": {"lang": "eng", "title": "Westphalia democrat.", "series": "/lccn/sn83040027", "longitude": -95.49025999999999, "normplace": "Westphalia, KS", "place": "Westphalia, Kan.", "country": "US", "latitude": 38.18197}, "/lccn/sn85031884": {"lang": "eng", "title": "Manhattan daily republic.", "series": "/lccn/sn85031884", "longitude": -96.57167, "normplace": "Manhattan, KS", "place": "Manhattan, Kan.", "country": "US", "latitude": 39.183609999999994}, "/lccn/sn87082439": {"lang": "eng", "title": "The Wisconsin news.", "series": "/lccn/sn87082439", "longitude": -87.90647, "normplace": "Milwaukee, WI", "place": "Milwaukee, Wis.", "country": "US", "latitude": 43.0389}, "/lccn/sn87082438": {"lang": "eng", "title": "The Wisconsin-news.", "series": "/lccn/sn87082438", "longitude": -87.90647, "normplace": "Milwaukee, WI", "place": "Milwaukee, Wis.", "country": "US", "latitude": 43.0389}, "/lccn/sn85031882": {"lang": "eng", "title": "Manhattan enterprise.", "series": "/lccn/sn85031882", "longitude": -96.57167, "normplace": "Manhattan, KS", "place": "Manhattan, Kan.", "country": "US", "latitude": 39.183609999999994}, "/lccn/sn83035631": {"lang": "eng", "title": "The Daily Scioto gazette.", "series": "/lccn/sn83035631", "longitude": -82.9824, "normplace": "Chillicothe, OH", "place": "Chillicothe, Ohio", "country": "US", "latitude": 39.33312}, "/lccn/sn87082437": {"lang": "eng", "title": "Evening Wisconsin and daily news.", "series": "/lccn/sn87082437", "longitude": -87.90647, "normplace": "Milwaukee, WI", "place": "Milwaukee, Wis.", "country": "US", "latitude": 43.0389}, "/lccn/sn87082436": {"lang": "eng", "title": "Daily free Democrat.", "series": "/lccn/sn87082436", "longitude": -87.90647, "normplace": "Milwaukee, WI", "place": "Milwaukee, Wis.", "country": "US", "latitude": 43.0389}, "/lccn/sn84028535": {"lang": "eng", "title": "The Register-leader.", "series": "/lccn/sn84028535", "longitude": -81.45484, "normplace": "Marietta, OH", "place": "Marietta, Ohio", "country": "US", "latitude": 39.41535}, "/lccn/sn89055128": {"lang": "eng", "title": "The Daily star-mirror.", "series": "/lccn/sn89055128", "longitude": -117.00017, "normplace": "Moscow, ID", "place": "Moscow, Idaho", "country": "US", "latitude": 46.73239}, "/lccn/sn84028534": {"lang": "eng", "title": "The Daily register.", "series": "/lccn/sn84028534", "longitude": -81.45484, "normplace": "Marietta, OH", "place": "Marietta, Ohio", "country": "US", "latitude": 39.41535}, "/lccn/sn83035633": {"lang": "eng", "title": "The Scioto gazette.", "series": "/lccn/sn83035633", "longitude": -82.9824, "normplace": "Chillicothe, OH", "place": "Chillicothe, Ohio", "country": "US", "latitude": 39.33312}, "/lccn/sn87065520": {"lang": "eng", "title": "The Panola Miss. lynx.", "series": "/lccn/sn87065520", "longitude": -89.964, "normplace": "Panola, MS", "place": "Panola, Mi. [i.e. Miss.]", "country": "US", "latitude": 34.328}, "/lccn/sn86063469": {"lang": "eng", "title": "Bedford inquirer.", "series": "/lccn/sn86063469", "longitude": -78.50391, "normplace": "Bedford, PA", "place": "Bedford, Pa.", "country": "US", "latitude": 40.01869}, "trove/673": {"lang": "eng", "title": "Mullumbimby Star and Byron Bay-Bangalow Advocate (NSW : 1936)", "series": "trove/673", "longitude": 153.49956, "normplace": "Mullumbimby, NSW", "place": "None", "country": "AU", "latitude": -28.552359999999997}, "/lccn/sn83032038": {"lang": "eng", "title": "The Cambria herald.", "series": "/lccn/sn83032038", "longitude": -78.72474, "normplace": "Ebensburg, PA", "place": "Ebensburg, Pa.", "country": "US", "latitude": 40.48507}, "/lccn/sn88077459": {"lang": "eng", "title": "Hillsboro press gazette.", "series": "/lccn/sn88077459", "longitude": -83.61159, "normplace": "Hillsboro, OH", "place": "Hillsboro, Ohio", "country": "US", "latitude": 39.202290000000005}, "/lccn/sn83040223": {"lang": "eng", "title": "Medicine Lodge cresset.", "series": "/lccn/sn83040223", "longitude": -98.58036, "normplace": "Medicine Lodge, KS", "place": "Medicine Lodge, Kan.", "country": "US", "latitude": 37.28113}, "trove/142": {"lang": "eng", "title": "Healesville Guardian and Yarra Glen Guardian (Vic. : 1898 - 1900)", "series": "trove/142", "longitude": 145.51718, "normplace": "Healesville, VIC", "place": "None", "country": "AU", "latitude": -37.65395}, "trove/141": {"lang": "eng", "title": "Healesville Guardian and Yarra Glen Advocate (Vic. : 1898)", "series": "trove/141", "longitude": 145.51718, "normplace": "Healesville, VIC", "place": "None", "country": "AU", "latitude": -37.65395}, "/lccn/sn85071003": {"lang": "eng", "title": "Knoxville tri-weekly Whig and rebel ventilator.", "series": "/lccn/sn85071003", "longitude": -83.92074000000001, "normplace": "Knoxville, TN", "place": "Knoxville, Tenn.", "country": "US", "latitude": 35.960640000000005}, "trove/147": {"lang": "eng", "title": "Eltham and Whittlesea Shires Advertiser and Diamond Creek Valley Advocate (Vic. : 1917 - 1922)", "series": "trove/147", "longitude": 145.15, "normplace": "Eltham, VIC", "place": "None", "country": "AU", "latitude": -37.73333}, "/lccn/sn84028531": {"lang": "eng", "title": "The Weekly leader.", "series": "/lccn/sn84028531", "longitude": -81.45484, "normplace": "Marietta, OH", "place": "Marietta, Ohio", "country": "US", "latitude": 39.41535}, "trove/145": {"lang": "eng", "title": "Evelyn Observer, and South and East Bourke Record (Vic. : 1882 - 1902)", "series": "trove/145", "longitude": 145.2317, "normplace": "Kangaroo Ground, VIC", "place": "None", "country": "AU", "latitude": -37.68919}, "trove/144": {"lang": "eng", "title": "Healesville Guardian (Lilydale, Vic. : 1942 - 1954)", "series": "trove/144", "longitude": 145.35, "normplace": "Lilydale, VIC", "place": "None", "country": "AU", "latitude": -37.75}, "aps/27457": {"lang": "eng", "title": "Religious Remembrancer (1813-1823)", "series": "aps/27457", "longitude": -85.75941, "normplace": "Louisville, KY", "place": "Louisville, Ky., etc.", "country": "US", "latitude": 38.25424}, "trove/149": {"lang": "eng", "title": "Eltham and Whittlesea Shires Advertiser (Vic. : 1940 - 1942)", "series": "trove/149", "longitude": 145.15, "normplace": "Eltham, VIC", "place": "None", "country": "AU", "latitude": -37.73333}, "/lccn/sn84028530": {"lang": "eng", "title": "The Marietta register.", "series": "/lccn/sn84028530", "longitude": -81.45484, "normplace": "Marietta, OH", "place": "Marietta, Ohio", "country": "US", "latitude": 39.41535}, "trove/796": {"lang": "eng", "title": "Stock and Land (Melbourne, Vic. : 1914 - 1918)", "series": "trove/796", "longitude": 144.96331999999998, "normplace": "Melbourne, VIC", "place": "None", "country": "AU", "latitude": -37.814}, "aps/24152": {"lang": "eng", "title": "The Subterranean (1845-1847)", "series": "aps/24152", "longitude": -74.00596999999999, "normplace": "New York, NY", "place": "New York", "country": "US", "latitude": 40.71427}, "aps/24153": {"lang": "eng", "title": "Mechanics' Magazine, and Journal of the Mechanics' Institute (1833-1837)", "series": "aps/24153", "longitude": -74.00596999999999, "normplace": "New York, NY", "place": "New York", "country": "US", "latitude": 40.71427}, "aps/24150": {"lang": "eng", "title": "Stand; by a Society of Young Men (1819-1820)", "series": "aps/24150", "longitude": -72.68509, "normplace": "Hartford, CT", "place": "Hartford, Conn.", "country": "US", "latitude": 41.763709999999996}, "aps/24151": {"lang": "eng", "title": "Philanthropist, a Weekly Journal Containing Essays, on Moral and Religious Subjects (1817-1822)", "series": "aps/24151", "longitude": -83.84826, "normplace": "Mount Pleasant, OH", "place": "Mt. Pleasant, Ohio", "country": "US", "latitude": 39.53423}, "/lccn/sn84027147": {"lang": "eng", "title": "Journal-every evening.", "series": "/lccn/sn84027147", "longitude": -75.54659000000001, "normplace": "Wilmington, DE", "place": "Wilmington, Del.", "country": "US", "latitude": 39.74595}, "aps/24154": {"lang": "eng", "title": "Current Literature (1888-1912)", "series": "aps/24154", "longitude": -74.00596999999999, "normplace": "New York, NY", "place": "New York", "country": "US", "latitude": 40.71427}, "/lccn/sn89055121": {"lang": "eng", "title": "North Idaho star.", "series": "/lccn/sn89055121", "longitude": -117.00017, "normplace": "Moscow, ID", "place": "Moscow, Idaho", "country": "US", "latitude": 46.73239}, "/lccn/sn87080495": {"lang": "eng", "title": "Pike-Wayne eagle, and the citizen-times.", "series": "/lccn/sn87080495", "longitude": -75.18212, "normplace": "Hawley, PA", "place": "Hawley, Pa.", "country": "US", "latitude": 41.47592}, "/lccn/sn83035638": {"lang": "eng", "title": "The Scioto gazette.", "series": "/lccn/sn83035638", "longitude": -82.9824, "normplace": "Chillicothe, OH", "place": "Chillicothe, O. [Ohio]", "country": "US", "latitude": 39.33312}, "/lccn/sn94058219": {"lang": "eng", "title": "Hendersonville daily times.", "series": "/lccn/sn94058219", "longitude": -82.46095, "normplace": "Hendersonville, NC", "place": "Hendersonville, N.C.", "country": "US", "latitude": 35.31873}, "/lccn/sn88084081": {"lang": "eng", "title": "Georgia telegraph.", "series": "/lccn/sn88084081", "longitude": -83.6324, "normplace": "Macon, GA", "place": "Macon, Ga.", "country": "US", "latitude": 32.84069}, "/lccn/sn88084082": {"lang": "eng", "title": "The South Carolina Baptist.", "series": "/lccn/sn88084082", "longitude": -82.65013, "normplace": "Anderson, SC", "place": "Anderson, S.C.", "country": "US", "latitude": 34.503440000000005}, "/lccn/sn89055122": {"lang": "eng", "title": "Moscow weekly mirror.", "series": "/lccn/sn89055122", "longitude": -117.00017, "normplace": "Moscow, ID", "place": "Moscow, Idaho", "country": "US", "latitude": 46.73239}, "europeana/LVA/jauna_avize": {"lang": "None", "title": "Jaun\u0101 Av\u012bze", "series": "europeana/LVA/jauna_avize", "longitude": "None", "normplace": "\u2014", "place": "[missing]", "country": "EU", "latitude": "None"}, "/lccn/sn90002050": {"lang": "eng", "title": "The DeSoto County times.", "series": "/lccn/sn90002050", "longitude": -81.85842, "normplace": "Arcadia, FL", "place": "Arcadia, Fla.", "country": "US", "latitude": 27.21588}, "/lccn/sn88064461": {"lang": "eng", "title": "The Bossier times.", "series": "/lccn/sn88064461", "longitude": -93.52212, "normplace": "Bellevue, LA", "place": "Bellevue, Bossier Parish, La.", "country": "US", "latitude": 32.6732}, "/lccn/sn88064460": {"lang": "eng", "title": "The Progress.", "series": "/lccn/sn88064460", "longitude": -93.75018, "normplace": "Shreveport, LA", "place": "Shreveport, La.", "country": "US", "latitude": 32.52515}, "/lccn/sn88064467": {"lang": "eng", "title": "The Weekly Caucasian.", "series": "/lccn/sn88064467", "longitude": -93.75018, "normplace": "Shreveport, LA", "place": "Shreveport, La.", "country": "US", "latitude": 32.52515}, "/lccn/sn88064469": {"lang": "eng", "title": "The Caucasian.", "series": "/lccn/sn88064469", "longitude": -93.75018, "normplace": "Shreveport, LA", "place": "Shreveport, La.", "country": "US", "latitude": 32.52515}, "/lccn/sn88064468": {"lang": "eng", "title": "The Daily Caucasian.", "series": "/lccn/sn88064468", "longitude": -93.75018, "normplace": "Shreveport, LA", "place": "Shreveport, La.", "country": "US", "latitude": 32.52515}, "aps/35016": {"lang": "eng", "title": "The Investigator (1845-1845)", "series": "aps/35016", "longitude": -77.03636999999999, "normplace": "Washington, DC", "place": "Washington", "country": "US", "latitude": 38.895109999999995}, "/lccn/sn98060016": {"lang": "eng", "title": "Bennington banner and reformer.", "series": "/lccn/sn98060016", "longitude": -73.19677, "normplace": "Bennington, VT", "place": "Bennington, Vt.", "country": "US", "latitude": 42.87813}, "/lccn/sn88076530": {"lang": "eng", "title": "Devils Lake free press.", "series": "/lccn/sn88076530", "longitude": -98.86511999999999, "normplace": "Devils Lake, ND", "place": "Devils Lake, Ramsey County, N.D.", "country": "US", "latitude": 48.11278}, "/lccn/sn86091110": {"lang": "eng", "title": "Lewiston inter-state news.", "series": "/lccn/sn86091110", "longitude": -117.01766, "normplace": "Lewiston, ID", "place": "Lewiston, Idaho", "country": "US", "latitude": 46.41655}, "/lccn/sn86091117": {"lang": "eng", "title": "The star-mirror.", "series": "/lccn/sn86091117", "longitude": -117.00017, "normplace": "Moscow, ID", "place": "Moscow, Idaho", "country": "US", "latitude": 46.73239}, "/lccn/sn88076535": {"lang": "eng", "title": "The Devils Lake world.", "series": "/lccn/sn88076535", "longitude": -98.86511999999999, "normplace": "Devils Lake, ND", "place": "Devils Lake, N.D.", "country": "US", "latitude": 48.11278}, "trove/794": {"lang": "eng", "title": "Spectator and Methodist Chronicle  (Melbourne, Vic. : 1914 - 1918)", "series": "trove/794", "longitude": 144.96331999999998, "normplace": "Melbourne, VIC", "place": "None", "country": "AU", "latitude": -37.814}, "/lccn/sn86091119": {"lang": "eng", "title": "The Daily Idahonian.", "series": "/lccn/sn86091119", "longitude": -117.00017, "normplace": "Moscow, ID", "place": "Moscow, Idaho", "country": "US", "latitude": 46.73239}, "/lccn/sn86091118": {"lang": "eng", "title": "The daily news-review.", "series": "/lccn/sn86091118", "longitude": -117.00017, "normplace": "Moscow, ID", "place": "Moscow, Idaho", "country": "US", "latitude": 46.73239}, "aps/24376": {"lang": "eng", "title": "United States Law Journal (1826-1826)", "series": "aps/24376", "longitude": -72.92815999999999, "normplace": "New Haven, CT", "place": "New Haven. (Conn.); New York", "country": "US", "latitude": 41.30815}, "/lccn/sn83030801": {"lang": "eng", "title": "The Albany register.", "series": "/lccn/sn83030801", "longitude": -73.75623, "normplace": "Albany, NY", "place": "Albany [N.Y.]", "country": "US", "latitude": 42.65258}, "aps/24374": {"lang": "eng", "title": "American Masonic Register and Literary Companion (1839-1847)", "series": "aps/24374", "longitude": -73.75623, "normplace": "Albany, NY", "place": "Albany, N.Y.", "country": "US", "latitude": 42.65258}, "aps/24375": {"lang": "eng", "title": "United States Law Journal, and Civilian's Magazine (1822-1823)", "series": "aps/24375", "longitude": -72.92815999999999, "normplace": "New Haven, CT", "place": "New Haven. (Conn.); New York", "country": "US", "latitude": 41.30815}, "aps/24372": {"lang": "eng", "title": "Microscope (1824-1825)", "series": "aps/24372", "longitude": -73.75623, "normplace": "Albany, NY", "place": "Albany", "country": "US", "latitude": 42.65258}, "aps/24373": {"lang": "eng", "title": "The Microscope and General Advertiser (1824-1825)", "series": "aps/24373", "longitude": -85.75941, "normplace": "Louisville, KY", "place": "Louisville, Ky. [etc.]", "country": "US", "latitude": 38.25424},